[{"name": "Yuendumu", "lat": -22.25585, "lng": 131.79286, "pop": 704}, {"name": "Youngs", "lat": -35.01667, "lng": 117.51667, "pop": 527}, {"name": "Yorketown", "lat": -35.01845, "lng": 137.60486, "pop": 936}, {"name": "York", "lat": -31.88809, "lng": 116.7678, "pop": 2472}, {"name": "Yirrkala", "lat": -12.25492, "lng": 136.88995, "pop": 851}, {"name": "Yankalilla", "lat": -35.45705, "lng": 138.34982, "pop": 895}, {"name": "Yanchep", "lat": -31.54678, "lng": 115.63171, "pop": 8571}, {"name": "Yallingup", "lat": -33.64592, "lng": 115.03514, "pop": 1034}, {"name": "Yalgoo", "lat": -28.34356, "lng": 116.68253, "pop": 672}, {"name": "Wyndham", "lat": -15.4869, "lng": 128.12428, "pop": 941}, {"name": "Wundowie", "lat": -31.76163, "lng": 116.3799, "pop": 1306}, {"name": "Wudinna", "lat": -33.05013, "lng": 135.46381, "pop": 738}, {"name": "Wooroloo", "lat": -31.8038, "lng": 116.31311, "pop": 2618}, {"name": "Woodville", "lat": -34.877, "lng": 138.54291, "pop": 2915}, {"name": "Woodside", "lat": -34.95433, "lng": 138.87901, "pop": 2508}, {"name": "Wongan Hills", "lat": -30.89294, "lng": 116.71925, "pop": 896}, {"name": "Wilmington", "lat": -32.64989, "lng": 138.09814, "pop": 560}, {"name": "Willunga", "lat": -35.27127, "lng": 138.55417, "pop": 2269}, {"name": "Williamstown", "lat": -34.6721, "lng": 138.89108, "pop": 2689}, {"name": "Williams", "lat": -33.02803, "lng": 116.87923, "pop": 912}, {"name": "Willaston", "lat": -34.5864, "lng": 138.74124, "pop": 3292}, {"name": "Whyalla", "lat": -33.03268, "lng": 137.56483, "pop": 3623}, {"name": "West Toodyay", "lat": -31.53333, "lng": 116.41667, "pop": 502}, {"name": "Wembley", "lat": -31.93308, "lng": 115.81783, "pop": 12061}, {"name": "Wellard", "lat": -32.26667, "lng": 115.83333, "pop": 8849}, {"name": "Welland", "lat": -34.90366, "lng": 138.55841, "pop": 848}, {"name": "Wayville", "lat": -34.94468, "lng": 138.59132, "pop": 1788}, {"name": "Waterloo Corner", "lat": -34.71667, "lng": 138.58333, "pop": 1202}, {"name": "Wasleys", "lat": -34.46992, "lng": 138.68562, "pop": 743}, {"name": "Waroona", "lat": -32.84323, "lng": 115.92201, "pop": 2858}, {"name": "Warburton", "lat": -26.1346, "lng": 126.57681, "pop": 608}, {"name": "Wanneroo", "lat": -31.75, "lng": 115.8, "pop": 12113}, {"name": "Walliston", "lat": -31.99683, "lng": 116.0743, "pop": 882}, {"name": "Wallaroo", "lat": -33.93881, "lng": 137.63365, "pop": 3529}, {"name": "Waikerie", "lat": -34.18178, "lng": 139.98552, "pop": 2701}, {"name": "Wagin", "lat": -33.30894, "lng": 117.34328, "pop": 1433}, {"name": "Waggrakine", "lat": -28.71883, "lng": 114.63924, "pop": 2330}, {"name": "Virginia", "lat": -34.6663, "lng": 138.56027, "pop": 1802}, {"name": "Victor Harbor", "lat": -35.55042, "lng": 138.62154, "pop": 4520}, {"name": "Vasse", "lat": -33.69337, "lng": 115.2678, "pop": 2325}, {"name": "Utakarra", "lat": -28.78333, "lng": 114.65, "pop": 1346}, {"name": "Uraidla", "lat": -34.95596, "lng": 138.74445, "pop": 549}, {"name": "Upper Swan", "lat": -31.76953, "lng": 116.0273, "pop": 560}, {"name": "Upper Sturt", "lat": -35.01667, "lng": 138.68333, "pop": 937}, {"name": "Unley", "lat": -34.95, "lng": 138.6, "pop": 3929}, {"name": "Two Wells", "lat": -34.59327, "lng": 138.51367, "pop": 2515}, {"name": "Tumby Bay", "lat": -34.3773, "lng": 136.10065, "pop": 1696}, {"name": "Truro", "lat": -34.40869, "lng": 139.12743, "pop": 520}, {"name": "Trigg", "lat": -31.86939, "lng": 115.7571, "pop": 2664}, {"name": "Toodyay", "lat": -31.54977, "lng": 116.46743, "pop": 1365}, {"name": "Thebarton", "lat": -34.91667, "lng": 138.56667, "pop": 1409}, {"name": "Tennant Creek", "lat": -19.6497, "lng": 134.19147, "pop": 3080}, {"name": "Tea Tree Gully", "lat": -34.81667, "lng": 138.73333, "pop": 3188}, {"name": "Tanunda", "lat": -34.52336, "lng": 138.95982, "pop": 4524}, {"name": "Tanami", "lat": -19.98333, "lng": 129.71667, "pop": 517}, {"name": "Tailem Bend", "lat": -35.25226, "lng": 139.45546, "pop": 1661}, {"name": "Swan View", "lat": -31.88333, "lng": 116.05, "pop": 7735}, {"name": "Swanbourne", "lat": -31.96878, "lng": 115.7673, "pop": 3965}, {"name": "Summertown", "lat": -34.95947, "lng": 138.73132, "pop": 670}, {"name": "Subiaco", "lat": -31.9485, "lng": 115.8268, "pop": 9690}, {"name": "Sturt", "lat": -35.02303, "lng": 138.55476, "pop": 2022}, {"name": "Streaky Bay", "lat": -32.79554, "lng": 134.20928, "pop": 1449}, {"name": "Strathalbyn", "lat": -35.25979, "lng": 138.89247, "pop": 6348}, {"name": "Stoneville", "lat": -31.8783, "lng": 116.17072, "pop": 2321}, {"name": "Stirling", "lat": -35.0022, "lng": 138.71956, "pop": 2867}, {"name": "Stansbury", "lat": -34.91108, "lng": 137.79903, "pop": 640}, {"name": "Springton", "lat": -34.70744, "lng": 139.08929, "pop": 644}, {"name": "Spearwood", "lat": -32.10534, "lng": 115.77797, "pop": 9872}, {"name": "South Perth", "lat": -31.98333, "lng": 115.86667, "pop": 12596}, {"name": "Southern Cross", "lat": -31.22677, "lng": 119.32376, "pop": 703}, {"name": "Solomontown", "lat": -33.1853, "lng": 138.02364, "pop": 1464}, {"name": "Smoky Bay", "lat": -32.37844, "lng": 133.93402, "pop": 606}, {"name": "Smithfield", "lat": -34.68333, "lng": 138.68333, "pop": 2418}, {"name": "Denham", "lat": -25.92679, "lng": 113.53327, "pop": 723}, {"name": "Serpentine", "lat": -32.36051, "lng": 115.97723, "pop": 2266}, {"name": "Semaphore", "lat": -34.83934, "lng": 138.48228, "pop": 2727}, {"name": "Seaton", "lat": -34.9, "lng": 138.51667, "pop": 10208}, {"name": "Seaford", "lat": -35.1898, "lng": 138.47589, "pop": 4316}, {"name": "Scarborough", "lat": -31.89578, "lng": 115.76431, "pop": 17605}, {"name": "Sawyers Valley", "lat": -31.90235, "lng": 116.20065, "pop": 956}, {"name": "Salisbury", "lat": -34.76667, "lng": 138.63333, "pop": 8136}, {"name": "Safety Bay", "lat": -32.30463, "lng": 115.74213, "pop": 7121}, {"name": "Roxby Downs", "lat": -30.56305, "lng": 136.89546, "pop": 4616}, {"name": "Roseworthy", "lat": -34.53397, "lng": 138.75023, "pop": 965}, {"name": "Roleystone", "lat": -32.11458, "lng": 116.0706, "pop": 6425}, {"name": "Roelands", "lat": -33.28333, "lng": 115.81667, "pop": 792}, {"name": "Roebourne", "lat": -20.77229, "lng": 117.14648, "pop": 989}, {"name": "Rockingham", "lat": -32.27682, "lng": 115.72978, "pop": 15312}, {"name": "Robe", "lat": -37.16387, "lng": 139.76026, "pop": 1096}, {"name": "Riverton", "lat": -34.15507, "lng": 138.74818, "pop": 994}, {"name": "Maida Vale", "lat": -31.95187, "lng": 116.02764, "pop": 4366}, {"name": "Reynella", "lat": -35.09372, "lng": 138.53082, "pop": 4667}, {"name": "Ravensthorpe", "lat": -33.58303, "lng": 120.04688, "pop": 516}, {"name": "Quorn", "lat": -32.34676, "lng": 138.04176, "pop": 1190}, {"name": "Quindalup", "lat": -33.6356, "lng": 115.14899, "pop": 1302}, {"name": "Quairading", "lat": -32.01197, "lng": 117.39554, "pop": 635}, {"name": "Prospect", "lat": -34.88241, "lng": 138.5933, "pop": 14584}, {"name": "Port Willunga", "lat": -35.26181, "lng": 138.46436, "pop": 1629}, {"name": "Port Wakefield", "lat": -34.1848, "lng": 138.14531, "pop": 654}, {"name": "Port Pirie", "lat": -33.19176, "lng": 138.01746, "pop": 13896}, {"name": "Port Noarlunga", "lat": -35.14802, "lng": 138.47099, "pop": 2861}, {"name": "Moonta Bay", "lat": -34.05, "lng": 137.56667, "pop": 2279}, {"name": "Port Lincoln", "lat": -34.72625, "lng": 135.87442, "pop": 13810}, {"name": "Port Hughes", "lat": -34.08333, "lng": 137.55, "pop": 568}, {"name": "Port Hedland", "lat": -20.31215, "lng": 118.61059, "pop": 15298}, {"name": "Port Elliot", "lat": -35.53017, "lng": 138.67922, "pop": 2064}, {"name": "Port Broughton", "lat": -33.6007, "lng": 137.93597, "pop": 1214}, {"name": "Port Augusta West", "lat": -32.48611, "lng": 137.75833, "pop": 4380}, {"name": "Port Augusta", "lat": -32.49597, "lng": 137.77281, "pop": 12788}, {"name": "Port Adelaide", "lat": -34.8462, "lng": 138.50302, "pop": 1197}, {"name": "Plympton", "lat": -34.962, "lng": 138.55496, "pop": 4682}, {"name": "Pinjarra", "lat": -32.6298, "lng": 115.87351, "pop": 4746}, {"name": "Pingelly", "lat": -32.53252, "lng": 117.0824, "pop": 795}, {"name": "Pickering Brook", "lat": -32.04763, "lng": 116.1985, "pop": 576}, {"name": "Peterborough", "lat": -32.97205, "lng": 138.84073, "pop": 1530}, {"name": "Perth", "lat": -31.95224, "lng": 115.8614, "pop": 2309338}, {"name": "Penfield", "lat": -34.69503, "lng": 138.64006, "pop": 792}, {"name": "Pemberton", "lat": -34.44311, "lng": 116.03689, "pop": 1016}, {"name": "Pearce", "lat": -31.66667, "lng": 116.01667, "pop": 2511}, {"name": "Parkerville", "lat": -31.87472, "lng": 116.138, "pop": 2235}, {"name": "Parap", "lat": -12.43054, "lng": 130.84142, "pop": 2925}, {"name": "Orroroo", "lat": -32.73438, "lng": 138.61392, "pop": 628}, {"name": "Onslow", "lat": -21.63764, "lng": 115.11221, "pop": 1157}, {"name": "One Tree Hill", "lat": -34.7, "lng": 138.76667, "pop": 1072}, {"name": "O\u2019Halloran Hill", "lat": -35.06667, "lng": 138.55, "pop": 2613}, {"name": "Oakbank", "lat": -34.9834, "lng": 138.84528, "pop": 811}, {"name": "Nuriootpa", "lat": -34.46825, "lng": 138.99767, "pop": 6213}, {"name": "Nullagine", "lat": -21.88972, "lng": 120.1114, "pop": 2587}, {"name": "Norton Summit", "lat": -34.92289, "lng": 138.72488, "pop": 510}, {"name": "North Fremantle", "lat": -32.03333, "lng": 115.75, "pop": 3221}, {"name": "Northfield", "lat": -34.84979, "lng": 138.6255, "pop": 4729}, {"name": "North Dandalup", "lat": -32.51676, "lng": 115.97193, "pop": 682}, {"name": "North Beach", "lat": -31.86298, "lng": 115.75624, "pop": 3290}, {"name": "Northampton", "lat": -28.34994, "lng": 114.63821, "pop": 816}, {"name": "Northam", "lat": -31.64932, "lng": 116.67423, "pop": 6517}, {"name": "Norseman", "lat": -32.19769, "lng": 121.77873, "pop": 640}, {"name": "Normanville", "lat": -35.44623, "lng": 138.3213, "pop": 1589}, {"name": "Old Noarlunga", "lat": -35.18209, "lng": 138.50138, "pop": 1407}, {"name": "Nhulunbuy", "lat": -12.18165, "lng": 136.77841, "pop": 3350}, {"name": "Newman", "lat": -23.35644, "lng": 119.73553, "pop": 12316}, {"name": "Nedlands", "lat": -31.98184, "lng": 115.8073, "pop": 10949}, {"name": "Narrogin", "lat": -32.93282, "lng": 117.17763, "pop": 4245}, {"name": "Napperby", "lat": -33.15737, "lng": 138.11644, "pop": 646}, {"name": "Nannup", "lat": -33.97874, "lng": 115.7646, "pop": 915}, {"name": "Nairne", "lat": -35.0345, "lng": 138.91154, "pop": 4926}, {"name": "Myponga", "lat": -35.40403, "lng": 138.47122, "pop": 709}, {"name": "Mylor", "lat": -35.04303, "lng": 138.759, "pop": 1091}, {"name": "Murray Bridge", "lat": -35.11986, "lng": 139.27345, "pop": 14491}, {"name": "Mundijong", "lat": -32.29217, "lng": 115.98564, "pop": 1200}, {"name": "Mundaring", "lat": -31.9021, "lng": 116.16757, "pop": 2972}, {"name": "Mullewa", "lat": -28.53952, "lng": 115.51173, "pop": 516}, {"name": "Muchea", "lat": -31.58214, "lng": 115.97161, "pop": 930}, {"name": "Mount Torrens", "lat": -34.87546, "lng": 138.95863, "pop": 686}, {"name": "Mount Pleasant", "lat": -34.77487, "lng": 139.04915, "pop": 992}, {"name": "Mount Magnet", "lat": -28.06479, "lng": 117.84904, "pop": 660}, {"name": "Mount Isa", "lat": -20.72523, "lng": 139.49727, "pop": 18317}, {"name": "Mount Helena", "lat": -31.87606, "lng": 116.21025, "pop": 3070}, {"name": "Mount Compass", "lat": -35.34685, "lng": 138.62032, "pop": 1397}, {"name": "Mount Barker", "lat": -35.06667, "lng": 138.86667, "pop": 21554}, {"name": "Mount Barker", "lat": -34.63084, "lng": 117.66606, "pop": 2682}, {"name": "Mosman Park", "lat": -32.00538, "lng": 115.7638, "pop": 8566}, {"name": "Morphett Vale", "lat": -35.13333, "lng": 138.51667, "pop": 24002}, {"name": "Morawa", "lat": -29.21343, "lng": 116.00791, "pop": 596}, {"name": "Moora", "lat": -30.64003, "lng": 116.00365, "pop": 1819}, {"name": "Moonta", "lat": -34.06841, "lng": 137.59076, "pop": 608}, {"name": "Modbury", "lat": -34.83333, "lng": 138.68333, "pop": 5306}, {"name": "Moana", "lat": -35.19394, "lng": 138.47614, "pop": 2544}, {"name": "Mitcham", "lat": -34.97892, "lng": 138.62184, "pop": 1792}, {"name": "Minlaton", "lat": -34.77101, "lng": 137.59576, "pop": 1060}, {"name": "Millendon", "lat": -31.80775, "lng": 116.0367, "pop": 515}, {"name": "Milang", "lat": -35.40781, "lng": 138.97121, "pop": 849}, {"name": "Midland", "lat": -31.88909, "lng": 116.0107, "pop": 6105}, {"name": "Middleton", "lat": -35.51047, "lng": 138.70377, "pop": 1122}, {"name": "Middle Swan", "lat": -31.85, "lng": 116.01667, "pop": 2841}, {"name": "Merredin", "lat": -31.48094, "lng": 118.27448, "pop": 2851}, {"name": "Meningie", "lat": -35.68637, "lng": 139.34007, "pop": 1083}, {"name": "Meekatharra", "lat": -26.59524, "lng": 118.49393, "pop": 675}, {"name": "Medina", "lat": -32.23406, "lng": 115.79901, "pop": 2333}, {"name": "Meadows", "lat": -35.18021, "lng": 138.7625, "pop": 1342}, {"name": "McMinns Lagoon", "lat": -12.54774, "lng": 131.07625, "pop": 834}, {"name": "McLaren Vale", "lat": -35.21895, "lng": 138.54326, "pop": 3754}, {"name": "McLaren Flat", "lat": -35.21667, "lng": 138.58333, "pop": 1492}, {"name": "Maylands", "lat": -31.93097, "lng": 115.89486, "pop": 13199}, {"name": "Mataranka", "lat": -14.92127, "lng": 133.065, "pop": 890}, {"name": "Marion", "lat": -35.00423, "lng": 138.55313, "pop": 3783}, {"name": "Marino", "lat": -35.04468, "lng": 138.51236, "pop": 2088}, {"name": "Margaret River", "lat": -33.95504, "lng": 115.07599, "pop": 7571}, {"name": "Marble Bar", "lat": -21.17067, "lng": 119.74441, "pop": 927}, {"name": "Mannum", "lat": -34.91529, "lng": 139.30325, "pop": 2679}, {"name": "Manning", "lat": -32.01594, "lng": 115.86714, "pop": 4007}, {"name": "Manjimup", "lat": -34.24122, "lng": 116.14564, "pop": 4291}, {"name": "Maningrida", "lat": -12.0483, "lng": 134.22941, "pop": 2325}, {"name": "Mandurah", "lat": -32.5269, "lng": 115.7217, "pop": 90306}, {"name": "Mallala", "lat": -34.4374, "lng": 138.50987, "pop": 866}, {"name": "Maitland", "lat": -34.37386, "lng": 137.67333, "pop": 1222}, {"name": "Mahogany Creek", "lat": -31.9056, "lng": 116.13672, "pop": 878}, {"name": "Maddington", "lat": -32.05, "lng": 115.98333, "pop": 12419}, {"name": "Macclesfield", "lat": -35.17182, "lng": 138.83589, "pop": 1343}, {"name": "Lyndoch", "lat": -34.60124, "lng": 138.89094, "pop": 1966}, {"name": "Lower Chittering", "lat": -31.58333, "lng": 116.11667, "pop": 2048}, {"name": "Lobethal", "lat": -34.90455, "lng": 138.87477, "pop": 2174}, {"name": "Littlehampton", "lat": -35.04225, "lng": 138.86423, "pop": 2062}, {"name": "Lewiston", "lat": -34.60449, "lng": 138.59125, "pop": 3009}, {"name": "Leonora", "lat": -28.88509, "lng": 121.33074, "pop": 1267}, {"name": "Lenswood", "lat": -34.91822, "lng": 138.83261, "pop": 534}, {"name": "Laverton", "lat": -28.62531, "lng": 122.3994, "pop": 2121}, {"name": "Laura", "lat": -33.1852, "lng": 138.30228, "pop": 679}, {"name": "Largs Bay", "lat": -34.82582, "lng": 138.48619, "pop": 4015}, {"name": "Lake Grace", "lat": -33.10317, "lng": 118.46463, "pop": 544}, {"name": "Kwinana", "lat": -32.23013, "lng": 115.78128, "pop": 30433}, {"name": "Kununurra", "lat": -15.77825, "lng": 128.74208, "pop": 4515}, {"name": "Kojonup", "lat": -33.8305, "lng": 117.15946, "pop": 1235}, {"name": "Kingston South East", "lat": -36.83073, "lng": 139.8522, "pop": 1306}, {"name": "Kingston Park", "lat": -35.03825, "lng": 138.51635, "pop": 519}, {"name": "Kingscote", "lat": -35.6559, "lng": 137.6393, "pop": 1915}, {"name": "Kimba", "lat": -33.14164, "lng": 136.41875, "pop": 666}, {"name": "Keysbrook", "lat": -32.43333, "lng": 115.96667, "pop": 617}, {"name": "Keswick", "lat": -34.94178, "lng": 138.57459, "pop": 746}, {"name": "Kersbrook", "lat": -34.78305, "lng": 138.85091, "pop": 1116}, {"name": "Kenwick", "lat": -32.03333, "lng": 115.96667, "pop": 5648}, {"name": "Kendenup", "lat": -34.48213, "lng": 117.62533, "pop": 949}, {"name": "Kelmscott", "lat": -32.12434, "lng": 116.0259, "pop": 10575}, {"name": "Kellerberrin", "lat": -31.63182, "lng": 117.71983, "pop": 962}, {"name": "Katherine", "lat": -14.46517, "lng": 132.26347, "pop": 5980}, {"name": "Katanning", "lat": -33.68787, "lng": 117.5584, "pop": 3655}, {"name": "Karoonda", "lat": -35.09446, "lng": 139.89342, "pop": 505}, {"name": "Karnup", "lat": -32.41894, "lng": 115.79267, "pop": 1351}, {"name": "Kapunda", "lat": -34.33871, "lng": 138.91644, "pop": 2911}, {"name": "Kanmantoo", "lat": -35.07005, "lng": 139.01271, "pop": 710}, {"name": "Kangarilla", "lat": -35.14881, "lng": 138.6604, "pop": 881}, {"name": "Kalgoorlie", "lat": -30.74614, "lng": 121.4742, "pop": 29072}, {"name": "Kalgan", "lat": -34.88472, "lng": 118.01306, "pop": 805}, {"name": "Kalbarri", "lat": -27.7105, "lng": 114.16505, "pop": 2602}, {"name": "Kadina", "lat": -33.96495, "lng": 137.71634, "pop": 2739}, {"name": "Jarrahdale", "lat": -32.3358, "lng": 116.05951, "pop": 1171}, {"name": "Jamestown", "lat": -33.20531, "lng": 138.60503, "pop": 1610}, {"name": "Ironbank", "lat": -35.05, "lng": 138.68333, "pop": 504}, {"name": "Ingle Farm", "lat": -34.83333, "lng": 138.63333, "pop": 8679}, {"name": "Hovea", "lat": -31.88333, "lng": 116.1, "pop": 595}, {"name": "Houghton", "lat": -34.82869, "lng": 138.7615, "pop": 511}, {"name": "Hope Valley", "lat": -34.83333, "lng": 138.7, "pop": 8223}, {"name": "Hopetoun", "lat": -33.95057, "lng": 120.12635, "pop": 801}, {"name": "Hindmarsh Island", "lat": -35.51014, "lng": 138.86762, "pop": 1341}, {"name": "Herne Hill", "lat": -31.82553, "lng": 116.0227, "pop": 1489}, {"name": "Heathfield", "lat": -35.02834, "lng": 138.71724, "pop": 935}, {"name": "Harvey", "lat": -33.07863, "lng": 115.91512, "pop": 3281}, {"name": "Happy Valley", "lat": -35.08333, "lng": 138.53333, "pop": 11420}, {"name": "Hamley Bridge", "lat": -34.35763, "lng": 138.68074, "pop": 705}, {"name": "Hamersley", "lat": -31.84898, "lng": 115.80757, "pop": 4866}, {"name": "Halls Creek", "lat": -18.22485, "lng": 127.66647, "pop": 1734}, {"name": "Hahndorf", "lat": -35.02863, "lng": 138.80779, "pop": 2715}, {"name": "Hackham", "lat": -35.15514, "lng": 138.52509, "pop": 3884}, {"name": "Gumeracha", "lat": -34.82388, "lng": 138.88467, "pop": 820}, {"name": "Guildford", "lat": -31.9, "lng": 115.96667, "pop": 1986}, {"name": "Greenock", "lat": -34.457, "lng": 138.92719, "pop": 1060}, {"name": "Greenmount", "lat": -31.90072, "lng": 116.0495, "pop": 2646}, {"name": "Grasmere", "lat": -35.01806, "lng": 117.75556, "pop": 1526}, {"name": "Grange", "lat": -34.90223, "lng": 138.49022, "pop": 5759}, {"name": "Gosnells", "lat": -32.081, "lng": 116.0054, "pop": 21149}, {"name": "Gooseberry Hill", "lat": -31.95444, "lng": 116.0492, "pop": 3199}, {"name": "Goomalling", "lat": -31.30156, "lng": 116.82527, "pop": 552}, {"name": "Goolwa", "lat": -35.50159, "lng": 138.78191, "pop": 2225}, {"name": "Golden Grove", "lat": -34.78333, "lng": 138.73333, "pop": 10017}, {"name": "Gnowangerup", "lat": -33.93698, "lng": 118.00904, "pop": 594}, {"name": "Glenelg", "lat": -34.98079, "lng": 138.515, "pop": 3623}, {"name": "Gladstone", "lat": -33.26695, "lng": 138.35655, "pop": 737}, {"name": "Gingin", "lat": -31.34722, "lng": 115.90432, "pop": 806}, {"name": "Gilles Plains", "lat": -34.85, "lng": 138.65, "pop": 3564}, {"name": "Geraldton", "lat": -28.77897, "lng": 114.61459, "pop": 38595}, {"name": "Gepps Cross", "lat": -34.84149, "lng": 138.59562, "pop": 660}, {"name": "Gawler", "lat": -34.60251, "lng": 138.74902, "pop": 20006}, {"name": "Fremantle", "lat": -32.05632, "lng": 115.74557, "pop": 8616}, {"name": "Freeling", "lat": -34.45407, "lng": 138.80868, "pop": 2204}, {"name": "Fitzroy Crossing", "lat": -18.19714, "lng": 125.56663, "pop": 1783}, {"name": "Findon", "lat": -34.9, "lng": 138.53333, "pop": 6178}, {"name": "Eudunda", "lat": -34.17703, "lng": 139.08408, "pop": 812}, {"name": "Esperance", "lat": -33.85919, "lng": 121.89164, "pop": 13883}, {"name": "Encounter Bay", "lat": -35.57419, "lng": 138.60055, "pop": 4651}, {"name": "Elizabeth", "lat": -34.72, "lng": 138.67, "pop": 993}, {"name": "Echunga", "lat": -35.10354, "lng": 138.79588, "pop": 1072}, {"name": "Dwellingup", "lat": -32.71438, "lng": 116.0622, "pop": 584}, {"name": "Dunsborough", "lat": -33.61476, "lng": 115.10445, "pop": 4981}, {"name": "Donnybrook", "lat": -33.5713, "lng": 115.82446, "pop": 2656}, {"name": "Dongara", "lat": -29.238, "lng": 114.927, "pop": 1390}, {"name": "Chidlow", "lat": -31.86094, "lng": 116.27243, "pop": 1783}, {"name": "Derby", "lat": -17.30295, "lng": 123.62864, "pop": 4110}, {"name": "Denmark", "lat": -34.96067, "lng": 117.35321, "pop": 2613}, {"name": "Port Denison", "lat": -29.27367, "lng": 114.92068, "pop": 1500}, {"name": "Darwin", "lat": -12.46113, "lng": 130.84185, "pop": 139902}, {"name": "Darlington", "lat": -35.03151, "lng": 138.55527, "pop": 1080}, {"name": "Darlington", "lat": -31.91906, "lng": 116.0812, "pop": 3557}, {"name": "Dardanup", "lat": -33.3983, "lng": 115.7518, "pop": 500}, {"name": "Dampier", "lat": -20.66275, "lng": 116.71256, "pop": 1172}, {"name": "Dalwallinu", "lat": -30.28045, "lng": 116.66015, "pop": 814}, {"name": "Cunderdin", "lat": -31.65398, "lng": 117.23374, "pop": 890}, {"name": "Cummins", "lat": -34.26396, "lng": 135.726, "pop": 945}, {"name": "Crystal Brook", "lat": -33.35256, "lng": 138.20955, "pop": 1508}, {"name": "Craigburn Farm", "lat": -35.04046, "lng": 138.6049, "pop": 2336}, {"name": "Crafers", "lat": -34.989, "lng": 138.716, "pop": 1905}, {"name": "Cowell", "lat": -33.68227, "lng": 136.92117, "pop": 1250}, {"name": "Cowaramup", "lat": -33.85036, "lng": 115.10379, "pop": 1798}, {"name": "Cottesloe", "lat": -31.99426, "lng": 115.75816, "pop": 7136}, {"name": "Corrigin", "lat": -32.33383, "lng": 117.87181, "pop": 793}, {"name": "Coromandel Valley", "lat": -35.05, "lng": 138.61667, "pop": 4090}, {"name": "Coondle", "lat": -31.48182, "lng": 116.4276, "pop": 673}, {"name": "Coolgardie", "lat": -30.95266, "lng": 121.16349, "pop": 864}, {"name": "Cookernup", "lat": -32.98966, "lng": 115.87993, "pop": 508}, {"name": "Coogee", "lat": -32.11934, "lng": 115.7665, "pop": 4525}, {"name": "Coober Pedy", "lat": -29.01415, "lng": 134.75495, "pop": 2106}, {"name": "Collie", "lat": -33.36206, "lng": 116.15617, "pop": 7396}, {"name": "Cockatoo Valley", "lat": -34.62479, "lng": 138.83655, "pop": 681}, {"name": "Cleve", "lat": -33.7, "lng": 136.5, "pop": 1142}, {"name": "Clarendon", "lat": -35.11667, "lng": 138.63333, "pop": 597}, {"name": "Clare", "lat": -33.83325, "lng": 138.61064, "pop": 3223}, {"name": "Chittering", "lat": -31.46766, "lng": 116.0801, "pop": 896}, {"name": "Cherry Gardens", "lat": -35.06339, "lng": 138.66294, "pop": 573}, {"name": "Cheltenham", "lat": -34.86788, "lng": 138.52336, "pop": 2176}, {"name": "Charleston", "lat": -34.91667, "lng": 138.9, "pop": 530}, {"name": "Ceduna", "lat": -32.1266, "lng": 133.67271, "pop": 2091}, {"name": "Caversham", "lat": -31.88333, "lng": 115.96667, "pop": 5182}, {"name": "Carnarvon", "lat": -24.88258, "lng": 113.65713, "pop": 7392}, {"name": "Carmel", "lat": -32.01667, "lng": 116.1, "pop": 734}, {"name": "Cardup", "lat": -32.25802, "lng": 115.98512, "pop": 1078}, {"name": "Capel", "lat": -33.55808, "lng": 115.56278, "pop": 2391}, {"name": "Cannington", "lat": -32.01625, "lng": 115.93648, "pop": 5906}, {"name": "Campbelltown", "lat": -34.88333, "lng": 138.66667, "pop": 8130}, {"name": "Camooweal", "lat": -19.92154, "lng": 138.12013, "pop": 539}, {"name": "Callington", "lat": -35.11977, "lng": 139.0414, "pop": 589}, {"name": "Cadell", "lat": -34.03881, "lng": 139.76388, "pop": 541}, {"name": "Byford", "lat": -32.22099, "lng": 116.009, "pop": 18878}, {"name": "Busselton", "lat": -33.65249, "lng": 115.3455, "pop": 21898}, {"name": "Burra", "lat": -33.67171, "lng": 138.92835, "pop": 1149}, {"name": "Burekup", "lat": -33.30707, "lng": 115.81368, "pop": 773}, {"name": "Bunbury", "lat": -33.32711, "lng": 115.64137, "pop": 76452}, {"name": "Bullsbrook", "lat": -31.66905, "lng": 115.9999, "pop": 5102}, {"name": "Bruce Rock", "lat": -31.88046, "lng": 118.14749, "pop": 684}, {"name": "Broome", "lat": -17.95538, "lng": 122.23922, "pop": 14660}, {"name": "Brookton", "lat": -32.37235, "lng": 117.0105, "pop": 754}, {"name": "Brighton", "lat": -35.0182, "lng": 138.52351, "pop": 3465}, {"name": "Bridgewater", "lat": -35.01397, "lng": 138.76648, "pop": 3719}, {"name": "Bridgetown", "lat": -33.96242, "lng": 116.13598, "pop": 2751}, {"name": "Boyup Brook", "lat": -33.83425, "lng": 116.38776, "pop": 873}, {"name": "Boyanup", "lat": -33.48295, "lng": 115.72838, "pop": 1163}, {"name": "Boya", "lat": -31.91934, "lng": 116.05766, "pop": 633}, {"name": "Boulder", "lat": -30.78204, "lng": 121.4912, "pop": 4870}, {"name": "Borroloola", "lat": -16.06969, "lng": 136.30797, "pop": 956}, {"name": "Boddington", "lat": -32.80071, "lng": 116.47522, "pop": 1153}, {"name": "Blackwood", "lat": -35.02139, "lng": 138.61429, "pop": 4072}, {"name": "Birkenhead", "lat": -34.83685, "lng": 138.49788, "pop": 1648}, {"name": "Birdwood", "lat": -34.81826, "lng": 138.96478, "pop": 932}, {"name": "Bickley", "lat": -31.9997, "lng": 116.1072, "pop": 653}, {"name": "Beverley", "lat": -32.10839, "lng": 116.92736, "pop": 869}, {"name": "Bentley", "lat": -32.00224, "lng": 115.92473, "pop": 8323}, {"name": "Bellevue", "lat": -31.90116, "lng": 116.02762, "pop": 1667}, {"name": "Belair", "lat": -34.99766, "lng": 138.62077, "pop": 4288}, {"name": "Bedford Park", "lat": -35.02204, "lng": 138.56815, "pop": 2689}, {"name": "Bedfordale", "lat": -32.17406, "lng": 116.0504, "pop": 2776}, {"name": "Beaumont", "lat": -34.94899, "lng": 138.66188, "pop": 2508}, {"name": "Batchelor", "lat": -13.05046, "lng": 131.03072, "pop": 661}, {"name": "Bassendean", "lat": -31.90906, "lng": 115.9437, "pop": 10837}, {"name": "Balingup", "lat": -33.8, "lng": 115.96667, "pop": 529}, {"name": "Balhannah", "lat": -34.99094, "lng": 138.82565, "pop": 1660}, {"name": "Balaklava", "lat": -34.14542, "lng": 138.41148, "pop": 2031}, {"name": "Bakers Hill", "lat": -31.74692, "lng": 116.45866, "pop": 1114}, {"name": "Australind", "lat": -33.2792, "lng": 115.71504, "pop": 15988}, {"name": "Augusta", "lat": -34.31566, "lng": 115.15922, "pop": 1362}, {"name": "Auburn", "lat": -34.02691, "lng": 138.68521, "pop": 653}, {"name": "Arno Bay", "lat": -33.9, "lng": 136.56667, "pop": 504}, {"name": "Armadale", "lat": -32.14607, "lng": 116.0093, "pop": 13415}, {"name": "Ardrossan", "lat": -34.42217, "lng": 137.91907, "pop": 1151}, {"name": "Applecross", "lat": -32.01667, "lng": 115.83333, "pop": 6676}, {"name": "Angle Vale", "lat": -34.64098, "lng": 138.6461, "pop": 2865}, {"name": "Angaston", "lat": -34.50129, "lng": 139.04625, "pop": 2058}, {"name": "Allanson", "lat": -33.33588, "lng": 116.0994, "pop": 588}, {"name": "Alice Springs", "lat": -23.69748, "lng": 133.88362, "pop": 25186}, {"name": "Aldinga", "lat": -35.28333, "lng": 138.48333, "pop": 546}, {"name": "Aldgate", "lat": -35.01667, "lng": 138.73333, "pop": 3471}, {"name": "Albany", "lat": -35.02692, "lng": 117.88369, "pop": 35053}, {"name": "Adelaide", "lat": -34.92866, "lng": 138.59863, "pop": 1469163}, {"name": "Eaton", "lat": -33.31664, "lng": 115.70503, "pop": 8166}, {"name": "Binningup", "lat": -33.1483, "lng": 115.69519, "pop": 1205}, {"name": "Seacliff", "lat": -35.03474, "lng": 138.52288, "pop": 1887}, {"name": "Clapham", "lat": -34.98989, "lng": 138.60158, "pop": 1592}, {"name": "Lancelin", "lat": -31.02251, "lng": 115.33651, "pop": 693}, {"name": "Two Rocks", "lat": -31.49985, "lng": 115.58737, "pop": 2901}, {"name": "Quinns Rocks", "lat": -31.67379, "lng": 115.70372, "pop": 8442}, {"name": "East Fremantle", "lat": -32.03823, "lng": 115.7676, "pop": 7209}, {"name": "Peppermint Grove", "lat": -31.99878, "lng": 115.7682, "pop": 1610}, {"name": "Claremont", "lat": -31.97961, "lng": 115.7823, "pop": 8033}, {"name": "Bicton", "lat": -32.02778, "lng": 115.78333, "pop": 6422}, {"name": "Attadale", "lat": -32.02489, "lng": 115.802, "pop": 6196}, {"name": "Shenton Park", "lat": -31.95575, "lng": 115.79807, "pop": 4507}, {"name": "Dalkeith", "lat": -31.99517, "lng": 115.7998, "pop": 4148}, {"name": "Cervantes", "lat": -30.49611, "lng": 115.06716, "pop": 553}, {"name": "Jurien Bay", "lat": -30.30591, "lng": 115.03825, "pop": 1773}, {"name": "Drummond Cove", "lat": -28.67379, "lng": 114.6128, "pop": 1415}, {"name": "Warnbro", "lat": -32.34017, "lng": 115.7473, "pop": 10828}, {"name": "Mullaloo", "lat": -31.77896, "lng": 115.73676, "pop": 5794}, {"name": "Exmouth", "lat": -21.93063, "lng": 114.12091, "pop": 3692}, {"name": "Alyangula", "lat": -13.85413, "lng": 136.42129, "pop": 1191}, {"name": "Stuart Park", "lat": -12.4486, "lng": 130.84249, "pop": 4168}, {"name": "Larrakeyah", "lat": -12.45527, "lng": 130.83172, "pop": 4245}, {"name": "Leanyer", "lat": -12.36667, "lng": 130.9, "pop": 4557}, {"name": "Ludmilla", "lat": -12.42032, "lng": 130.85506, "pop": 1743}, {"name": "Fannie Bay", "lat": -12.42275, "lng": 130.83627, "pop": 2688}, {"name": "Nightcliff", "lat": -12.38299, "lng": 130.8517, "pop": 3810}, {"name": "Glen Iris", "lat": -33.33713, "lng": 115.6743, "pop": 2911}, {"name": "Lower King", "lat": -34.95778, "lng": 117.93833, "pop": 1755}, {"name": "Zeehan", "lat": -41.88342, "lng": 145.33623, "pop": 751}, {"name": "Yungaburra", "lat": -17.27058, "lng": 145.58335, "pop": 1357}, {"name": "Young", "lat": -34.3135, "lng": 148.30107, "pop": 10160}, {"name": "Yoogali", "lat": -34.29944, "lng": 146.08443, "pop": 1236}, {"name": "Yinnar South", "lat": -38.38333, "lng": 146.38333, "pop": 658}, {"name": "Yinnar", "lat": -38.32252, "lng": 146.32921, "pop": 863}, {"name": "Yerrinbool", "lat": -34.36884, "lng": 150.53848, "pop": 1146}, {"name": "Yeppoon", "lat": -23.12683, "lng": 150.74406, "pop": 7037}, {"name": "Yenda", "lat": -34.24525, "lng": 146.20273, "pop": 1488}, {"name": "Yea", "lat": -37.21067, "lng": 145.42755, "pop": 1789}, {"name": "Yatala", "lat": -27.71667, "lng": 153.21667, "pop": 1334}, {"name": "Yass", "lat": -34.84036, "lng": 148.90987, "pop": 6454}, {"name": "Yarroweyah", "lat": -35.92407, "lng": 145.55716, "pop": 531}, {"name": "Yarrawonga", "lat": -36.01923, "lng": 145.99973, "pop": 7630}, {"name": "Yarraville", "lat": -37.81667, "lng": 144.9, "pop": 15636}, {"name": "Yarraman", "lat": -26.84167, "lng": 151.98138, "pop": 1045}, {"name": "Yarram", "lat": -38.56479, "lng": 146.67557, "pop": 2072}, {"name": "Yarra Junction", "lat": -37.78192, "lng": 145.6143, "pop": 2522}, {"name": "Yarragon", "lat": -38.20525, "lng": 146.06079, "pop": 1621}, {"name": "Yarra Glen", "lat": -37.65794, "lng": 145.37416, "pop": 2852}, {"name": "Yandina", "lat": -26.56165, "lng": 152.95595, "pop": 2368}, {"name": "Yanderra", "lat": -34.31963, "lng": 150.57532, "pop": 654}, {"name": "Yanco", "lat": -34.5985, "lng": 146.40954, "pop": 965}, {"name": "Yamba", "lat": -29.4375, "lng": 153.35914, "pop": 6913}, {"name": "Yackandandah", "lat": -36.31371, "lng": 146.83958, "pop": 1763}, {"name": "Wy Yung", "lat": -37.8, "lng": 147.58333, "pop": 1580}, {"name": "Wyreema", "lat": -27.65583, "lng": 151.85532, "pop": 1778}, {"name": "Wyongah", "lat": -33.27468, "lng": 151.48898, "pop": 1998}, {"name": "Wyong", "lat": -33.28254, "lng": 151.42327, "pop": 4309}, {"name": "Wynyard", "lat": -40.9897, "lng": 145.72617, "pop": 5820}, {"name": "Wynnum", "lat": -27.44527, "lng": 153.15813, "pop": 12650}, {"name": "Wyee", "lat": -33.18252, "lng": 151.48804, "pop": 2377}, {"name": "Wycheproof", "lat": -36.07765, "lng": 143.22714, "pop": 624}, {"name": "Wyalong", "lat": -33.92568, "lng": 147.24264, "pop": 648}, {"name": "Wuuluman", "lat": -32.55, "lng": 149.08333, "pop": 770}, {"name": "Wurruk", "lat": -38.11667, "lng": 147.03333, "pop": 1072}, {"name": "Wulkuraka", "lat": -27.61429, "lng": 152.72191, "pop": 1210}, {"name": "Woy Woy", "lat": -33.48433, "lng": 151.32471, "pop": 10668}, {"name": "Worrolong", "lat": -37.80619, "lng": 140.84803, "pop": 895}, {"name": "Worrigee", "lat": -34.9, "lng": 150.63333, "pop": 4953}, {"name": "Worongary", "lat": -28.05, "lng": 153.35, "pop": 5598}, {"name": "Woree", "lat": -16.95, "lng": 145.75, "pop": 5351}, {"name": "Woori Yallock", "lat": -37.78062, "lng": 145.53819, "pop": 2910}, {"name": "Woorim", "lat": -27.06931, "lng": 153.20427, "pop": 1937}, {"name": "Woorabinda", "lat": -24.13065, "lng": 149.45657, "pop": 966}, {"name": "Woonona", "lat": -34.34932, "lng": 150.91443, "pop": 11980}, {"name": "Woombye", "lat": -26.66054, "lng": 152.96947, "pop": 3224}, {"name": "Woombah", "lat": -29.36184, "lng": 153.2824, "pop": 850}, {"name": "Woolwich", "lat": -33.84019, "lng": 151.16939, "pop": 798}, {"name": "Woolloomooloo", "lat": -33.87042, "lng": 151.21968, "pop": 4174}, {"name": "Woolgoolga", "lat": -30.11058, "lng": 153.20067, "pop": 5495}, {"name": "Woolamia", "lat": -35.01667, "lng": 150.65, "pop": 567}, {"name": "Woodstock", "lat": -33.74457, "lng": 148.84892, "pop": 682}, {"name": "Woodridge", "lat": -27.63333, "lng": 153.1, "pop": 12579}, {"name": "Woodhill", "lat": -27.9, "lng": 152.96667, "pop": 724}, {"name": "Woodgate", "lat": -25.1083, "lng": 152.56254, "pop": 1454}, {"name": "Woodford", "lat": -33.73333, "lng": 150.48333, "pop": 1884}, {"name": "Woodford", "lat": -26.95291, "lng": 152.77747, "pop": 3477}, {"name": "Woodend", "lat": -37.35469, "lng": 144.52902, "pop": 5709}, {"name": "Woodburn", "lat": -29.07163, "lng": 153.34608, "pop": 715}, {"name": "Wonthaggi", "lat": -38.60586, "lng": 145.59355, "pop": 4784}, {"name": "Wongarbon", "lat": -32.3328, "lng": 148.75932, "pop": 757}, {"name": "Wonga Park", "lat": -37.73333, "lng": 145.26667, "pop": 3695}, {"name": "Wondecla", "lat": -17.41667, "lng": 145.4, "pop": 617}, {"name": "Wondai", "lat": -26.3177, "lng": 151.87242, "pop": 1963}, {"name": "Wombarra", "lat": -34.28333, "lng": 150.95, "pop": 837}, {"name": "Wolumla", "lat": -36.83081, "lng": 149.81306, "pop": 672}, {"name": "Wollongbar", "lat": -28.8182, "lng": 153.39686, "pop": 2770}, {"name": "Wollert", "lat": -37.58333, "lng": 145.03333, "pop": 24407}, {"name": "Wodonga", "lat": -36.12179, "lng": 146.88809, "pop": 38949}, {"name": "Witta", "lat": -26.7, "lng": 152.81667, "pop": 1200}, {"name": "Winton", "lat": -22.38185, "lng": 143.0424, "pop": 1238}, {"name": "Wingham", "lat": -31.86676, "lng": 152.36989, "pop": 5329}, {"name": "Wingello", "lat": -34.69475, "lng": 150.15816, "pop": 553}, {"name": "Windsor", "lat": -33.61309, "lng": 150.81416, "pop": 1990}, {"name": "Windsor", "lat": -37.85344, "lng": 144.99241, "pop": 7273}, {"name": "Windaroo", "lat": -27.74587, "lng": 153.19339, "pop": 2799}, {"name": "Windang", "lat": -34.53333, "lng": 150.86667, "pop": 2626}, {"name": "Winchelsea", "lat": -38.24485, "lng": 143.98322, "pop": 1905}, {"name": "Wilton", "lat": -34.24053, "lng": 150.69771, "pop": 3080}, {"name": "Willow Grove", "lat": -38.08333, "lng": 146.2, "pop": 567}, {"name": "Williamtown", "lat": -32.80638, "lng": 151.84361, "pop": 1091}, {"name": "Williamstown", "lat": -37.86349, "lng": 144.899, "pop": 14407}, {"name": "Willaura", "lat": -37.54541, "lng": 142.74037, "pop": 524}, {"name": "Wilcannia", "lat": -31.55879, "lng": 143.37686, "pop": 782}, {"name": "Wilberforce", "lat": -33.56256, "lng": 150.83784, "pop": 2972}, {"name": "Whittlesea", "lat": -37.51152, "lng": 145.11836, "pop": 6117}, {"name": "White Rock", "lat": -16.97438, "lng": 145.7633, "pop": 4771}, {"name": "Whitebridge", "lat": -32.97436, "lng": 151.71614, "pop": 2555}, {"name": "Wheelers Hill", "lat": -37.9, "lng": 145.18333, "pop": 20652}, {"name": "West Wyalong", "lat": -33.92373, "lng": 147.20473, "pop": 3276}, {"name": "West Wallsend", "lat": -32.9, "lng": 151.58333, "pop": 2231}, {"name": "West Tamworth", "lat": -31.10236, "lng": 150.91447, "pop": 5259}, {"name": "West Strahan", "lat": -42.15196, "lng": 145.31654, "pop": 637}, {"name": "West Pymble", "lat": -33.76667, "lng": 151.13333, "pop": 5211}, {"name": "Westmead", "lat": -33.80383, "lng": 150.98768, "pop": 17835}, {"name": "West Hoxton", "lat": -33.93388, "lng": 150.83234, "pop": 9978}, {"name": "Westcourt", "lat": -26.8, "lng": 150.15, "pop": 3177}, {"name": "Westbury", "lat": -41.52914, "lng": 146.83914, "pop": 1938}, {"name": "Westbrook", "lat": -27.61667, "lng": 151.86667, "pop": 3787}, {"name": "Wesburn", "lat": -37.76667, "lng": 145.63333, "pop": 1052}, {"name": "Werris Creek", "lat": -31.34908, "lng": 150.6487, "pop": 1530}, {"name": "Werribee", "lat": -37.9, "lng": 144.66667, "pop": 50027}, {"name": "Werombi", "lat": -33.98333, "lng": 150.58333, "pop": 913}, {"name": "Wentworthville", "lat": -33.80652, "lng": 150.96785, "pop": 11328}, {"name": "Wentworth Falls", "lat": -33.71033, "lng": 150.37534, "pop": 5928}, {"name": "Wentworth", "lat": -34.10726, "lng": 141.91315, "pop": 1485}, {"name": "Wendouree", "lat": -37.53078, "lng": 143.82838, "pop": 15000}, {"name": "Wellington Point", "lat": -27.48333, "lng": 153.25, "pop": 12052}, {"name": "Wellington", "lat": -32.55588, "lng": 148.94508, "pop": 4075}, {"name": "Weipa", "lat": -12.62346, "lng": 141.87883, "pop": 2830}, {"name": "Wee Waa", "lat": -30.2266, "lng": 149.44041, "pop": 2072}, {"name": "Weetangera", "lat": -35.25, "lng": 149.05, "pop": 2481}, {"name": "Wedderburn", "lat": -36.419, "lng": 143.61386, "pop": 951}, {"name": "Wedderburn", "lat": -34.13333, "lng": 150.81667, "pop": 629}, {"name": "Waverton", "lat": -33.83863, "lng": 151.20046, "pop": 3096}, {"name": "Waurn Ponds", "lat": -38.21667, "lng": 144.28333, "pop": 5198}, {"name": "Wauchope", "lat": -31.45792, "lng": 152.72617, "pop": 6252}, {"name": "Wattleglen", "lat": -37.66667, "lng": 145.18333, "pop": 1904}, {"name": "Watsons Bay", "lat": -33.84386, "lng": 151.2829, "pop": 880}, {"name": "Watsonia", "lat": -37.71667, "lng": 145.08333, "pop": 5352}, {"name": "Warwick", "lat": -28.21901, "lng": 152.03438, "pop": 15380}, {"name": "Warrnambool", "lat": -38.38176, "lng": 142.48799, "pop": 32894}, {"name": "Warrimoo", "lat": -33.71667, "lng": 150.6, "pop": 2418}, {"name": "Warrenheip", "lat": -37.56667, "lng": 143.93333, "pop": 689}, {"name": "Warren", "lat": -31.70224, "lng": 147.83392, "pop": 1348}, {"name": "Warrawee", "lat": -33.72884, "lng": 151.12051, "pop": 2938}, {"name": "Warrane", "lat": -42.85546, "lng": 147.38297, "pop": 2695}, {"name": "Warrandyte South", "lat": -37.75853, "lng": 145.24532, "pop": 648}, {"name": "Warrandyte", "lat": -37.75, "lng": 145.23333, "pop": 5368}, {"name": "Warragul", "lat": -38.15912, "lng": 145.93118, "pop": 19856}, {"name": "Warracknabeal", "lat": -36.25326, "lng": 142.39281, "pop": 2372}, {"name": "Warnervale", "lat": -33.24662, "lng": 151.45173, "pop": 624}, {"name": "Warialda", "lat": -29.54354, "lng": 150.57542, "pop": 1592}, {"name": "Wardell", "lat": -28.9511, "lng": 153.46189, "pop": 843}, {"name": "Warburton", "lat": -37.75375, "lng": 145.69037, "pop": 1989}, {"name": "Wantirna South", "lat": -37.88333, "lng": 145.21667, "pop": 20754}, {"name": "Wantirna", "lat": -37.85, "lng": 145.21667, "pop": 14237}, {"name": "Wangi Wangi", "lat": -33.07185, "lng": 151.5984, "pop": 2656}, {"name": "Wangaratta", "lat": -36.35846, "lng": 146.32056, "pop": 29808}, {"name": "Wandong", "lat": -37.3719, "lng": 145.03207, "pop": 1328}, {"name": "Wandoan", "lat": -26.12285, "lng": 149.96028, "pop": 1108}, {"name": "Wandin North", "lat": -37.78333, "lng": 145.43333, "pop": 2930}, {"name": "Wamuran", "lat": -27.03909, "lng": 152.86542, "pop": 3137}, {"name": "Wamberal", "lat": -33.41554, "lng": 151.44559, "pop": 6378}, {"name": "Wallsend", "lat": -32.90133, "lng": 151.66432, "pop": 12344}, {"name": "Walloon", "lat": -27.60545, "lng": 152.66429, "pop": 1540}, {"name": "Wallington", "lat": -38.22641, "lng": 144.51199, "pop": 1361}, {"name": "Wallerawang", "lat": -33.41096, "lng": 150.06456, "pop": 1943}, {"name": "Walla Walla", "lat": -35.76221, "lng": 146.90114, "pop": 862}, {"name": "Wallan", "lat": -37.41625, "lng": 144.97859, "pop": 15004}, {"name": "Wallalong", "lat": -32.69556, "lng": 151.64957, "pop": 1011}, {"name": "Wallacia", "lat": -33.86577, "lng": 150.64021, "pop": 1632}, {"name": "Walkerston", "lat": -21.16097, "lng": 149.05814, "pop": 3200}, {"name": "Walgett", "lat": -30.02461, "lng": 148.11566, "pop": 2113}, {"name": "Walcha", "lat": -30.98493, "lng": 151.59335, "pop": 2538}, {"name": "Waitara", "lat": -33.71092, "lng": 151.1033, "pop": 5874}, {"name": "Wahroonga", "lat": -33.71816, "lng": 151.11561, "pop": 17652}, {"name": "Wahgunyah", "lat": -36.01178, "lng": 146.39714, "pop": 1054}, {"name": "Wagga Wagga", "lat": -35.12577, "lng": 147.35375, "pop": 7690}, {"name": "Wacol", "lat": -27.58333, "lng": 152.93333, "pop": 3822}, {"name": "Virginia", "lat": -27.38333, "lng": 153.06667, "pop": 2161}, {"name": "Violet Town", "lat": -36.63608, "lng": 145.71506, "pop": 829}, {"name": "Vineyard", "lat": -33.64995, "lng": 150.85259, "pop": 1196}, {"name": "Villawood", "lat": -33.88434, "lng": 150.98027, "pop": 6067}, {"name": "Victoria Point", "lat": -27.58329, "lng": 153.31172, "pop": 14669}, {"name": "Vermont", "lat": -37.83616, "lng": 145.19428, "pop": 10993}, {"name": "Ventnor", "lat": -38.4676, "lng": 145.17358, "pop": 982}, {"name": "Vaucluse", "lat": -33.85549, "lng": 151.27754, "pop": 9205}, {"name": "Valley Heights", "lat": -33.7, "lng": 150.58333, "pop": 1207}, {"name": "Valla Beach", "lat": -30.59259, "lng": 153.01131, "pop": 1335}, {"name": "Vacy", "lat": -32.5316, "lng": 151.569, "pop": 658}, {"name": "Urunga", "lat": -30.49701, "lng": 153.01422, "pop": 3077}, {"name": "Urraween", "lat": -25.29522, "lng": 152.82206, "pop": 7000}, {"name": "Uranquinty", "lat": -35.19351, "lng": 147.246, "pop": 884}, {"name": "Urangan", "lat": -25.29214, "lng": 152.90535, "pop": 10758}, {"name": "Uralla", "lat": -30.6411, "lng": 151.50069, "pop": 2697}, {"name": "Upwey", "lat": -37.9, "lng": 145.33333, "pop": 6501}, {"name": "Upper Orara", "lat": -30.28333, "lng": 153.0, "pop": 821}, {"name": "Upper Lansdowne", "lat": -31.71081, "lng": 152.4658, "pop": 555}, {"name": "Upper Coomera", "lat": -27.87683, "lng": 153.28572, "pop": 24956}, {"name": "Upper Caboolture", "lat": -27.11667, "lng": 152.88333, "pop": 4153}, {"name": "Upper Brookfield", "lat": -27.46667, "lng": 152.86667, "pop": 756}, {"name": "Ungarie", "lat": -33.64166, "lng": 146.97502, "pop": 542}, {"name": "Unanderra", "lat": -34.45306, "lng": 150.84746, "pop": 5430}, {"name": "Ulverstone", "lat": -41.16026, "lng": 146.18242, "pop": 6189}, {"name": "Ulmarra", "lat": -29.63293, "lng": 153.0308, "pop": 781}, {"name": "Ulladulla", "lat": -35.35906, "lng": 150.47247, "pop": 6468}, {"name": "Uki", "lat": -28.41408, "lng": 153.33661, "pop": 687}, {"name": "Tylden", "lat": -37.32584, "lng": 144.40616, "pop": 516}, {"name": "Tyers", "lat": -38.14886, "lng": 146.48039, "pop": 784}, {"name": "Tyalgum", "lat": -28.35666, "lng": 153.20576, "pop": 537}, {"name": "Tyabb", "lat": -38.25, "lng": 145.18333, "pop": 3272}, {"name": "Tweed Heads", "lat": -28.17671, "lng": 153.5452, "pop": 9017}, {"name": "Turramurra", "lat": -33.73342, "lng": 151.12849, "pop": 11690}, {"name": "Tuross Head", "lat": -36.05328, "lng": 150.13322, "pop": 2183}, {"name": "Tuncurry", "lat": -32.17443, "lng": 152.49876, "pop": 6277}, {"name": "Tumut", "lat": -35.30642, "lng": 148.21818, "pop": 6167}, {"name": "Tumbi Vmbi", "lat": -33.36667, "lng": 151.45, "pop": 4981}, {"name": "Tumbarumba", "lat": -35.77806, "lng": 148.01172, "pop": 1798}, {"name": "Tully", "lat": -17.93264, "lng": 145.92277, "pop": 2431}, {"name": "Tullimbar", "lat": -34.57891, "lng": 150.73911, "pop": 523}, {"name": "Tullamarine", "lat": -37.70128, "lng": 144.881, "pop": 6733}, {"name": "Tugun", "lat": -28.15, "lng": 153.5, "pop": 6951}, {"name": "Tuggeranong Administrative District", "lat": -35.41647, "lng": 149.06954, "pop": 89461}, {"name": "Tuggerah", "lat": -33.30674, "lng": 151.42876, "pop": 922}, {"name": "Trundle", "lat": -32.92482, "lng": 147.71054, "pop": 654}, {"name": "Truganina", "lat": -37.81667, "lng": 144.75, "pop": 36305}, {"name": "Trinity Beach", "lat": -16.78876, "lng": 145.69682, "pop": 6057}, {"name": "Triabunna", "lat": -42.50805, "lng": 147.91134, "pop": 844}, {"name": "Trentham", "lat": -37.38876, "lng": 144.32164, "pop": 1110}, {"name": "Traralgon South", "lat": -38.28994, "lng": 146.5462, "pop": 532}, {"name": "Traralgon", "lat": -38.19528, "lng": 146.5415, "pop": 26907}, {"name": "Trangie", "lat": -32.03147, "lng": 147.98344, "pop": 1162}, {"name": "Trafalgar", "lat": -38.20906, "lng": 146.15347, "pop": 3774}, {"name": "Townsville", "lat": -19.26639, "lng": 146.80569, "pop": 201313}, {"name": "Toukley", "lat": -33.26367, "lng": 151.53841, "pop": 4531}, {"name": "Torquay", "lat": -38.33085, "lng": 144.32638, "pop": 18534}, {"name": "Torquay", "lat": -25.28496, "lng": 152.87886, "pop": 7426}, {"name": "Torbanlea", "lat": -25.34533, "lng": 152.59383, "pop": 779}, {"name": "Toowoomba", "lat": -27.56056, "lng": 151.95386, "pop": 142163}, {"name": "Toowong", "lat": -27.48333, "lng": 152.98333, "pop": 10780}, {"name": "Toorbul", "lat": -27.03221, "lng": 153.09825, "pop": 953}, {"name": "Toorak", "lat": -37.84165, "lng": 145.01438, "pop": 12817}, {"name": "Tooradin", "lat": -38.21475, "lng": 145.38325, "pop": 1722}, {"name": "Toora", "lat": -38.66287, "lng": 146.32787, "pop": 661}, {"name": "Toongabbie West", "lat": -33.78333, "lng": 150.93333, "pop": 11578}, {"name": "Toongabbie", "lat": -38.05, "lng": 146.61667, "pop": 976}, {"name": "Toongabbie", "lat": -33.78333, "lng": 150.95, "pop": 14218}, {"name": "Toolooa", "lat": -23.88505, "lng": 151.26783, "pop": 901}, {"name": "Toolern Vale", "lat": -37.6, "lng": 144.6, "pop": 716}, {"name": "Toolamba", "lat": -36.5, "lng": 145.35, "pop": 740}, {"name": "Toogoom", "lat": -25.25637, "lng": 152.69025, "pop": 2138}, {"name": "Toogoolawah", "lat": -27.08661, "lng": 152.37636, "pop": 1301}, {"name": "Tongala", "lat": -36.25466, "lng": 144.95622, "pop": 1881}, {"name": "Tomerong", "lat": -35.05231, "lng": 150.5865, "pop": 1032}, {"name": "Tomakin", "lat": -35.82335, "lng": 150.18794, "pop": 1088}, {"name": "Tolga", "lat": -17.18557, "lng": 145.47707, "pop": 2746}, {"name": "Tocumwal", "lat": -35.8115, "lng": 145.56922, "pop": 2633}, {"name": "Tintinara", "lat": -35.8871, "lng": 140.05646, "pop": 501}, {"name": "Tintenbar", "lat": -28.79877, "lng": 153.52204, "pop": 797}, {"name": "Tinonee", "lat": -31.93634, "lng": 152.41425, "pop": 1077}, {"name": "Tingha", "lat": -29.95588, "lng": 151.21246, "pop": 822}, {"name": "Tin Can Bay", "lat": -25.91914, "lng": 153.0032, "pop": 2378}, {"name": "Timboon", "lat": -38.48434, "lng": 142.98033, "pop": 1159}, {"name": "Tiaro", "lat": -25.72606, "lng": 152.58266, "pop": 764}, {"name": "Thornton", "lat": -32.78333, "lng": 151.63333, "pop": 7879}, {"name": "Thornleigh", "lat": -33.73228, "lng": 151.07895, "pop": 8395}, {"name": "Thornlands", "lat": -27.55751, "lng": 153.26481, "pop": 14475}, {"name": "Thornbury", "lat": -37.75819, "lng": 145.00583, "pop": 19005}, {"name": "Thomastown", "lat": -37.68333, "lng": 145.01667, "pop": 20234}, {"name": "Thirroul", "lat": -34.31604, "lng": 150.92142, "pop": 5920}, {"name": "Thirlmere", "lat": -34.20455, "lng": 150.56767, "pop": 3968}, {"name": "The Rocks", "lat": -33.85923, "lng": 151.2081, "pop": 2054}, {"name": "The Rock", "lat": -35.27302, "lng": 147.11381, "pop": 1207}, {"name": "Theresa Park", "lat": -34.0068, "lng": 150.6346, "pop": 528}, {"name": "The Patch", "lat": -37.89187, "lng": 145.40216, "pop": 1018}, {"name": "Theodore", "lat": -24.94599, "lng": 150.07419, "pop": 543}, {"name": "The Oaks", "lat": -34.07995, "lng": 150.56998, "pop": 2516}, {"name": "The Leap", "lat": -21.08333, "lng": 149.01667, "pop": 622}, {"name": "The Entrance", "lat": -33.33876, "lng": 151.4978, "pop": 4025}, {"name": "The Caves", "lat": -23.18333, "lng": 150.46667, "pop": 689}, {"name": "The Basin", "lat": -37.85, "lng": 145.31667, "pop": 4497}, {"name": "Thangool", "lat": -24.48632, "lng": 150.57362, "pop": 761}, {"name": "Thagoona", "lat": -27.63333, "lng": 152.63333, "pop": 982}, {"name": "Thabeban", "lat": -24.9, "lng": 152.35, "pop": 3014}, {"name": "Tewantin", "lat": -26.39104, "lng": 153.03432, "pop": 11157}, {"name": "Terrigal", "lat": -33.44815, "lng": 151.44665, "pop": 11309}, {"name": "Terry Hills", "lat": -33.68333, "lng": 151.23333, "pop": 3087}, {"name": "Terranora", "lat": -28.23832, "lng": 153.50078, "pop": 2876}, {"name": "Terang", "lat": -38.24084, "lng": 142.92123, "pop": 2188}, {"name": "Teralba", "lat": -32.96667, "lng": 151.6, "pop": 1581}, {"name": "Tenterfield", "lat": -29.04946, "lng": 152.01952, "pop": 4107}, {"name": "Tennyson", "lat": -27.52599, "lng": 152.99915, "pop": 584}, {"name": "Tenambit", "lat": -32.73967, "lng": 151.61293, "pop": 2847}, {"name": "Templestowe Lower", "lat": -37.76667, "lng": 145.11667, "pop": 14098}, {"name": "Templestowe", "lat": -37.75405, "lng": 145.14864, "pop": 16966}, {"name": "Tempe", "lat": -33.92335, "lng": 151.1602, "pop": 3500}, {"name": "Temora", "lat": -34.44834, "lng": 147.53558, "pop": 4622}, {"name": "Telegraph Point", "lat": -31.32467, "lng": 152.80052, "pop": 595}, {"name": "Telarah", "lat": -32.72876, "lng": 151.53453, "pop": 2277}, {"name": "Teesdale", "lat": -38.03333, "lng": 144.05, "pop": 1695}, {"name": "Tea Gardens", "lat": -32.66351, "lng": 152.15404, "pop": 2786}, {"name": "Tawonga", "lat": -36.68954, "lng": 147.14212, "pop": 541}, {"name": "Tatura", "lat": -36.43962, "lng": 145.22994, "pop": 4474}, {"name": "Tathra", "lat": -36.73126, "lng": 149.98328, "pop": 1662}, {"name": "Tarro", "lat": -32.8, "lng": 151.66667, "pop": 1636}, {"name": "Tarragindi", "lat": -27.52713, "lng": 153.04556, "pop": 11035}, {"name": "Taroona", "lat": -42.9452, "lng": 147.3484, "pop": 2964}, {"name": "Taroom", "lat": -25.63925, "lng": 149.7998, "pop": 888}, {"name": "Tarneit", "lat": -37.83634, "lng": 144.65952, "pop": 56370}, {"name": "Taree", "lat": -31.91099, "lng": 152.45387, "pop": 16359}, {"name": "Tara", "lat": -27.27613, "lng": 150.45676, "pop": 2272}, {"name": "Tanjil South", "lat": -38.11667, "lng": 146.25, "pop": 513}, {"name": "Tangambalanga", "lat": -36.25217, "lng": 147.02863, "pop": 539}, {"name": "Tanby", "lat": -23.23333, "lng": 150.75, "pop": 529}, {"name": "Tamworth", "lat": -31.09048, "lng": 150.92905, "pop": 43874}, {"name": "Tamborine", "lat": -27.88333, "lng": 153.13333, "pop": 3939}, {"name": "Tamaree", "lat": -26.13457, "lng": 152.66362, "pop": 862}, {"name": "Tallygaroopna", "lat": -36.25, "lng": 145.43333, "pop": 561}, {"name": "Tallong", "lat": -34.71667, "lng": 150.08333, "pop": 804}, {"name": "Tallebudgera", "lat": -28.15, "lng": 153.43333, "pop": 3614}, {"name": "Tallarook", "lat": -37.09369, "lng": 145.10001, "pop": 714}, {"name": "Tallangatta", "lat": -36.21791, "lng": 147.17699, "pop": 1043}, {"name": "Takura", "lat": -25.31796, "lng": 152.69588, "pop": 520}, {"name": "Tahmoor", "lat": -34.22246, "lng": 150.59467, "pop": 5016}, {"name": "Table Top", "lat": -35.96667, "lng": 147.0, "pop": 1372}, {"name": "Taabinga", "lat": -26.58333, "lng": 151.83333, "pop": 540}, {"name": "Sydney", "lat": -33.86785, "lng": 151.20732, "pop": 5557233}, {"name": "Sydenham", "lat": -37.7, "lng": 144.76667, "pop": 10578}, {"name": "Swansea", "lat": -42.12284, "lng": 148.07434, "pop": 859}, {"name": "Swansea", "lat": -33.08765, "lng": 151.63745, "pop": 4964}, {"name": "Swan Reach", "lat": -37.83333, "lng": 147.86667, "pop": 710}, {"name": "Swan Hill", "lat": -35.33781, "lng": 143.5544, "pop": 11508}, {"name": "Sutton Town", "lat": -37.8, "lng": 140.78333, "pop": 559}, {"name": "Sutton", "lat": -35.16667, "lng": 149.25, "pop": 2482}, {"name": "Sutherland", "lat": -34.031, "lng": 151.05532, "pop": 10657}, {"name": "Surry Hills", "lat": -33.88374, "lng": 151.21282, "pop": 15828}, {"name": "Surrey Hills", "lat": -37.81667, "lng": 145.1, "pop": 13655}, {"name": "Surfers Paradise", "lat": -28.00274, "lng": 153.42999, "pop": 31073}, {"name": "Sunshine", "lat": -37.78333, "lng": 144.83333, "pop": 9558}, {"name": "Sunnybank", "lat": -27.58003, "lng": 153.06064, "pop": 8622}, {"name": "Sunbury", "lat": -37.57742, "lng": 144.72607, "pop": 38851}, {"name": "Summerholm", "lat": -27.61667, "lng": 152.45, "pop": 641}, {"name": "Sulphur Creek", "lat": -41.09469, "lng": 146.02349, "pop": 609}, {"name": "Stuarts Point", "lat": -30.82079, "lng": 152.99329, "pop": 806}, {"name": "Stroud", "lat": -32.40366, "lng": 151.96699, "pop": 917}, {"name": "Strathpine", "lat": -27.30414, "lng": 152.98977, "pop": 9352}, {"name": "Strathmerton", "lat": -35.92533, "lng": 145.47865, "pop": 1044}, {"name": "Strathfieldsaye", "lat": -36.80667, "lng": 144.35487, "pop": 5283}, {"name": "Strathfield", "lat": -33.88096, "lng": 151.07986, "pop": 25769}, {"name": "Strathdickie", "lat": -20.33333, "lng": 148.61667, "pop": 855}, {"name": "Stratford", "lat": -37.9634, "lng": 147.0826, "pop": 2509}, {"name": "Strahan", "lat": -42.15194, "lng": 145.32733, "pop": 733}, {"name": "Stokers Siding", "lat": -28.4085, "lng": 153.4143, "pop": 679}, {"name": "Stockton", "lat": -32.90908, "lng": 151.7836, "pop": 4191}, {"name": "Stockleigh", "lat": -27.76667, "lng": 153.06667, "pop": 775}, {"name": "Steiglitz", "lat": -27.75, "lng": 153.35, "pop": 698}, {"name": "Stawell", "lat": -37.05632, "lng": 142.78088, "pop": 5889}, {"name": "Stanwell Park", "lat": -34.2261, "lng": 150.98583, "pop": 1358}, {"name": "Stanthorpe", "lat": -28.65425, "lng": 151.93388, "pop": 5378}, {"name": "Stanmore", "lat": -33.89407, "lng": 151.16424, "pop": 7619}, {"name": "Stanley", "lat": -40.76064, "lng": 145.29555, "pop": 538}, {"name": "Stanhope", "lat": -36.44725, "lng": 144.98267, "pop": 812}, {"name": "Springwood", "lat": -33.7, "lng": 150.55, "pop": 8358}, {"name": "Springvale South", "lat": -37.96667, "lng": 145.15, "pop": 12766}, {"name": "Springvale", "lat": -37.94853, "lng": 145.15274, "pop": 22174}, {"name": "Springsure", "lat": -24.11478, "lng": 148.08849, "pop": 1115}, {"name": "Spring Hill", "lat": -27.46141, "lng": 153.02311, "pop": 7213}, {"name": "Seaforth", "lat": -20.90042, "lng": 148.96794, "pop": 901}, {"name": "Springbrook", "lat": -28.19172, "lng": 153.26297, "pop": 717}, {"name": "Spreyton", "lat": -41.23524, "lng": 146.35108, "pop": 1615}, {"name": "Spotswood", "lat": -37.82975, "lng": 144.88516, "pop": 2578}, {"name": "South Yarra", "lat": -37.83834, "lng": 144.99149, "pop": 25237}, {"name": "Werribee South", "lat": -37.9475, "lng": 144.71667, "pop": 1788}, {"name": "Southport", "lat": -27.96724, "lng": 153.39796, "pop": 32965}, {"name": "South Nanango", "lat": -26.75, "lng": 151.96667, "pop": 834}, {"name": "South Melbourne", "lat": -37.83333, "lng": 144.96667, "pop": 11548}, {"name": "South Gundagai", "lat": -35.08162, "lng": 148.0988, "pop": 811}, {"name": "South Grafton", "lat": -29.7076, "lng": 152.92627, "pop": 6164}, {"name": "Southbrook", "lat": -27.68333, "lng": 151.71667, "pop": 576}, {"name": "South Arm", "lat": -43.02605, "lng": 147.42203, "pop": 796}, {"name": "Sorrento", "lat": -38.33958, "lng": 144.74126, "pop": 1522}, {"name": "Sorell", "lat": -42.78161, "lng": 147.56267, "pop": 2848}, {"name": "Somerville", "lat": -38.21667, "lng": 145.16667, "pop": 11767}, {"name": "Somerset", "lat": -41.04065, "lng": 145.83055, "pop": 3772}, {"name": "Somersby", "lat": -33.36667, "lng": 151.28333, "pop": 1046}, {"name": "Somers", "lat": -38.38134, "lng": 145.15898, "pop": 1857}, {"name": "Soldiers Point", "lat": -32.7105, "lng": 152.06979, "pop": 1427}, {"name": "Snug", "lat": -43.06669, "lng": 147.25468, "pop": 1203}, {"name": "Snake Valley", "lat": -37.61162, "lng": 143.58501, "pop": 717}, {"name": "Smythesdale", "lat": -37.64308, "lng": 143.68617, "pop": 1014}, {"name": "Smythes Creek", "lat": -37.6, "lng": 143.78333, "pop": 1423}, {"name": "Smithtown", "lat": -31.0142, "lng": 152.94522, "pop": 583}, {"name": "Smithton", "lat": -40.84587, "lng": 145.12498, "pop": 3815}, {"name": "Smithfield", "lat": -33.85, "lng": 150.93333, "pop": 11899}, {"name": "Slacks Creek", "lat": -27.65, "lng": 153.15, "pop": 10352}, {"name": "Skipton", "lat": -37.686, "lng": 143.36475, "pop": 567}, {"name": "Singleton", "lat": -32.56742, "lng": 151.16603, "pop": 5076}, {"name": "Silvan", "lat": -37.81667, "lng": 145.41667, "pop": 1323}, {"name": "Shorncliffe", "lat": -27.32759, "lng": 153.08161, "pop": 1842}, {"name": "Shoreham", "lat": -38.42634, "lng": 145.04694, "pop": 573}, {"name": "Shepparton", "lat": -36.38047, "lng": 145.39867, "pop": 32067}, {"name": "Shellharbour", "lat": -34.58333, "lng": 150.86667, "pop": 3552}, {"name": "Sheffield", "lat": -41.39947, "lng": 146.33897, "pop": 1488}, {"name": "Sharon", "lat": -24.87593, "lng": 152.26994, "pop": 1305}, {"name": "Seymour", "lat": -37.02655, "lng": 145.13924, "pop": 6235}, {"name": "Seville", "lat": -37.79802, "lng": 145.48763, "pop": 2315}, {"name": "Seven Hills", "lat": -33.78333, "lng": 150.93333, "pop": 19196}, {"name": "Selby", "lat": -37.91667, "lng": 145.38333, "pop": 1611}, {"name": "Sedgwick", "lat": -36.88333, "lng": 144.31667, "pop": 533}, {"name": "Sebastopol", "lat": -37.58532, "lng": 143.83953, "pop": 9890}, {"name": "Sea Lake", "lat": -35.50386, "lng": 142.84982, "pop": 628}, {"name": "Seaham", "lat": -32.66221, "lng": 151.72664, "pop": 989}, {"name": "Seaford", "lat": -38.1, "lng": 145.13333, "pop": 17215}, {"name": "Scottsdale", "lat": -41.1578, "lng": 147.51727, "pop": 2302}, {"name": "Scoresby", "lat": -37.9, "lng": 145.23333, "pop": 6066}, {"name": "Scone", "lat": -32.05014, "lng": 150.86893, "pop": 5613}, {"name": "Schofields", "lat": -33.71667, "lng": 150.86667, "pop": 4953}, {"name": "Scarsdale", "lat": -37.6795, "lng": 143.66695, "pop": 719}, {"name": "Scarness", "lat": -25.28405, "lng": 152.856, "pop": 3897}, {"name": "Scamander", "lat": -41.45598, "lng": 148.26101, "pop": 611}, {"name": "Sawtell", "lat": -30.36459, "lng": 153.10141, "pop": 3799}, {"name": "Sassafras", "lat": -37.86667, "lng": 145.35, "pop": 1010}, {"name": "Sarsfield", "lat": -37.75, "lng": 147.71667, "pop": 603}, {"name": "Sarina", "lat": -21.4191, "lng": 149.21677, "pop": 5534}, {"name": "Sapphire", "lat": -23.45733, "lng": 147.72437, "pop": 550}, {"name": "San Remo", "lat": -38.52547, "lng": 145.37616, "pop": 1286}, {"name": "Sandringham", "lat": -37.95218, "lng": 145.01129, "pop": 10926}, {"name": "Sandgate", "lat": -27.32198, "lng": 153.06951, "pop": 4837}, {"name": "Sandford", "lat": -42.93333, "lng": 147.5, "pop": 1834}, {"name": "Sancrox", "lat": -31.4318, "lng": 152.8012, "pop": 565}, {"name": "Samson Vale", "lat": -27.26667, "lng": 152.85, "pop": 574}, {"name": "Samford", "lat": -27.37271, "lng": 152.88655, "pop": 656}, {"name": "Salt Ash", "lat": -32.78333, "lng": 151.91667, "pop": 1099}, {"name": "Sale", "lat": -38.11095, "lng": 147.06802, "pop": 14296}, {"name": "Saint Peters", "lat": -33.91667, "lng": 151.18333, "pop": 3199}, {"name": "Saint Marys", "lat": -41.58345, "lng": 148.18754, "pop": 665}, {"name": "Saint Leonards", "lat": -41.45672, "lng": 147.19952, "pop": 1977}, {"name": "Saint Leonards", "lat": -38.17051, "lng": 144.71803, "pop": 2409}, {"name": "Saint Kilda", "lat": -37.8676, "lng": 144.98099, "pop": 19490}, {"name": "Saint Ives", "lat": -33.72976, "lng": 151.15977, "pop": 18384}, {"name": "St Helens", "lat": -41.32028, "lng": 148.23889, "pop": 2045}, {"name": "Saint Helena", "lat": -37.7, "lng": 145.13333, "pop": 2890}, {"name": "Saint Andrews", "lat": -37.60151, "lng": 145.27235, "pop": 1195}, {"name": "Saint Albans", "lat": -37.73333, "lng": 144.8, "pop": 35091}, {"name": "Rylstone", "lat": -32.79951, "lng": 149.96941, "pop": 906}, {"name": "Rye", "lat": -38.38528, "lng": 144.81221, "pop": 9438}, {"name": "Ryde", "lat": -33.8188, "lng": 151.1062, "pop": 26385}, {"name": "Rydalmere", "lat": -33.81453, "lng": 151.03751, "pop": 6571}, {"name": "Rutherglen", "lat": -36.0543, "lng": 146.46212, "pop": 2330}, {"name": "Rutherford", "lat": -32.71667, "lng": 151.53333, "pop": 11788}, {"name": "Rushworth", "lat": -36.58669, "lng": 145.0175, "pop": 1315}, {"name": "Rupanyup", "lat": -36.62846, "lng": 142.63152, "pop": 515}, {"name": "Rubyvale", "lat": -23.41816, "lng": 147.69908, "pop": 510}, {"name": "Royalla", "lat": -35.51667, "lng": 149.15, "pop": 980}, {"name": "Rowville", "lat": -37.93333, "lng": 145.23333, "pop": 33571}, {"name": "Ross Creek", "lat": -37.65, "lng": 143.75, "pop": 1125}, {"name": "Rosewood", "lat": -27.6335, "lng": 152.58949, "pop": 2825}, {"name": "Roseville", "lat": -33.78333, "lng": 151.18333, "pop": 9908}, {"name": "Rosehill", "lat": -33.82009, "lng": 151.0245, "pop": 4095}, {"name": "Rosedale", "lat": -38.15452, "lng": 146.7886, "pop": 1620}, {"name": "Rosebud", "lat": -38.35542, "lng": 144.9068, "pop": 14381}, {"name": "Rosebery", "lat": -41.77941, "lng": 145.53825, "pop": 751}, {"name": "Rosanna", "lat": -37.73895, "lng": 145.06735, "pop": 8616}, {"name": "Rooty Hill", "lat": -33.76667, "lng": 150.83333, "pop": 14821}, {"name": "Romsey", "lat": -37.35075, "lng": 144.743, "pop": 4625}, {"name": "Roma", "lat": -26.56741, "lng": 148.78751, "pop": 7105}, {"name": "Rokeby", "lat": -42.89875, "lng": 147.44917, "pop": 3369}, {"name": "Rocklea", "lat": -27.53917, "lng": 153.00402, "pop": 1596}, {"name": "Rockhampton", "lat": -23.38032, "lng": 150.50595, "pop": 81021}, {"name": "Rockdale", "lat": -33.95, "lng": 151.13333, "pop": 15436}, {"name": "Rockbank", "lat": -37.73353, "lng": 144.67003, "pop": 2583}, {"name": "Rochester", "lat": -36.36352, "lng": 144.70077, "pop": 2971}, {"name": "Rochedale", "lat": -27.56667, "lng": 153.13333, "pop": 3189}, {"name": "Robertson", "lat": -34.58742, "lng": 150.59116, "pop": 1800}, {"name": "Riverview", "lat": -27.6, "lng": 152.85, "pop": 3039}, {"name": "Riverstone", "lat": -33.68333, "lng": 150.86667, "pop": 7191}, {"name": "Ripponlea", "lat": -37.878, "lng": 144.995, "pop": 1532}, {"name": "Ripley", "lat": -27.71667, "lng": 152.83333, "pop": 877}, {"name": "Ringwood North", "lat": -37.8, "lng": 145.23333, "pop": 9565}, {"name": "Ringwood East", "lat": -37.81667, "lng": 145.25, "pop": 10764}, {"name": "Ringwood", "lat": -37.81667, "lng": 145.23333, "pop": 19144}, {"name": "Ridgley", "lat": -41.148, "lng": 145.833, "pop": 579}, {"name": "Richmond", "lat": -42.73554, "lng": 147.43833, "pop": 1474}, {"name": "Richmond", "lat": -37.81819, "lng": 145.00176, "pop": 28587}, {"name": "Richmond", "lat": -33.59956, "lng": 150.75142, "pop": 5418}, {"name": "Richmond", "lat": -20.73243, "lng": 143.14355, "pop": 758}, {"name": "Rhyll", "lat": -38.46421, "lng": 145.29948, "pop": 545}, {"name": "Rhodes", "lat": -33.82663, "lng": 151.0881, "pop": 11453}, {"name": "Revesby", "lat": -33.95, "lng": 151.01667, "pop": 14056}, {"name": "Reservoir", "lat": -37.71667, "lng": 145.0, "pop": 51096}, {"name": "Research", "lat": -37.7, "lng": 145.18333, "pop": 2574}, {"name": "Repton", "lat": -30.44268, "lng": 153.03661, "pop": 647}, {"name": "Renmark West", "lat": -34.16531, "lng": 140.7097, "pop": 1237}, {"name": "Renmark North", "lat": -34.12554, "lng": 140.71269, "pop": 626}, {"name": "Renmark", "lat": -34.17702, "lng": 140.74697, "pop": 4665}, {"name": "Regents Park", "lat": -33.88333, "lng": 151.01667, "pop": 4909}, {"name": "Red Rock", "lat": -29.98453, "lng": 153.22623, "pop": 520}, {"name": "Redlynch", "lat": -16.9254, "lng": 145.69559, "pop": 9666}, {"name": "Redland Bay", "lat": -27.6113, "lng": 153.30022, "pop": 14626}, {"name": "Red Hill South", "lat": -38.38333, "lng": 145.03333, "pop": 584}, {"name": "Red Hill", "lat": -38.35, "lng": 145.01667, "pop": 877}, {"name": "Red Hill", "lat": -20.31667, "lng": 148.5, "pop": 5406}, {"name": "Redhead", "lat": -33.01178, "lng": 151.71142, "pop": 3390}, {"name": "Redfern", "lat": -33.89279, "lng": 151.20415, "pop": 13072}, {"name": "Red Cliffs", "lat": -34.30942, "lng": 142.18971, "pop": 5294}, {"name": "Redbank", "lat": -27.6, "lng": 152.86667, "pop": 1815}, {"name": "Raymond Terrace", "lat": -32.75952, "lng": 151.7505, "pop": 12620}, {"name": "Raworth", "lat": -32.73333, "lng": 151.61667, "pop": 1721}, {"name": "Ravenshoe", "lat": -17.60901, "lng": 145.48413, "pop": 1452}, {"name": "Rathmines", "lat": -33.03773, "lng": 151.58443, "pop": 1836}, {"name": "Ranelagh", "lat": -43.00977, "lng": 147.03764, "pop": 1249}, {"name": "Raleigh", "lat": -30.43957, "lng": 152.97115, "pop": 630}, {"name": "Rainbow Flat", "lat": -32.03333, "lng": 152.48333, "pop": 666}, {"name": "Rainbow", "lat": -35.89578, "lng": 141.99789, "pop": 664}, {"name": "Railton", "lat": -41.3457, "lng": 146.42363, "pop": 969}, {"name": "Raglan", "lat": -33.41667, "lng": 149.66667, "pop": 1175}, {"name": "Quirindi", "lat": -31.50763, "lng": 150.67902, "pop": 3360}, {"name": "Quilpie", "lat": -26.61348, "lng": 144.26949, "pop": 645}, {"name": "Queenstown", "lat": -42.0805, "lng": 145.55646, "pop": 1800}, {"name": "Queenscliff", "lat": -38.26789, "lng": 144.66193, "pop": 1239}, {"name": "Queanbeyan", "lat": -35.35493, "lng": 149.232, "pop": 6296}, {"name": "Quakers Hill", "lat": -33.73333, "lng": 150.88333, "pop": 26904}, {"name": "Pyrmont", "lat": -33.86985, "lng": 151.19402, "pop": 13549}, {"name": "Pyramid Hill", "lat": -36.05583, "lng": 144.11467, "pop": 555}, {"name": "Pymble", "lat": -33.74386, "lng": 151.14188, "pop": 11775}, {"name": "Pyalong", "lat": -37.11288, "lng": 144.85235, "pop": 643}, {"name": "Purga", "lat": -27.6592, "lng": 152.7158, "pop": 574}, {"name": "Puckapunyal", "lat": -36.99493, "lng": 145.04005, "pop": 1310}, {"name": "Proserpine", "lat": -20.4011, "lng": 148.5802, "pop": 3614}, {"name": "Preston", "lat": -37.75, "lng": 145.01667, "pop": 33790}, {"name": "Prahran", "lat": -37.85114, "lng": 144.99318, "pop": 12203}, {"name": "Potts Point", "lat": -33.86701, "lng": 151.22586, "pop": 12168}, {"name": "Port Sorell", "lat": -41.16652, "lng": 146.55283, "pop": 1901}, {"name": "Port Melbourne", "lat": -37.83961, "lng": 144.94228, "pop": 17633}, {"name": "Port Macquarie", "lat": -31.43084, "lng": 152.90894, "pop": 51965}, {"name": "Port MacDonnell", "lat": -38.05313, "lng": 140.69963, "pop": 805}, {"name": "Portland", "lat": -38.3462, "lng": 141.60257, "pop": 9375}, {"name": "Portland", "lat": -33.35709, "lng": 149.98148, "pop": 2326}, {"name": "Port Kembla", "lat": -34.4818, "lng": 150.9012, "pop": 5012}, {"name": "Port Hacking", "lat": -34.06791, "lng": 151.12561, "pop": 1079}, {"name": "Port Fairy", "lat": -38.38535, "lng": 142.2371, "pop": 3285}, {"name": "Port Douglas", "lat": -16.48383, "lng": 145.46725, "pop": 3650}, {"name": "Port Campbell", "lat": -38.61919, "lng": 142.99583, "pop": 554}, {"name": "Portarlington", "lat": -38.11542, "lng": 144.65559, "pop": 3490}, {"name": "Porepunkah", "lat": -36.69606, "lng": 146.91038, "pop": 1024}, {"name": "Poowong", "lat": -38.34285, "lng": 145.76379, "pop": 620}, {"name": "Pontville", "lat": -42.68705, "lng": 147.2686, "pop": 617}, {"name": "Pomona", "lat": -26.36685, "lng": 152.85574, "pop": 2820}, {"name": "Pokolbin", "lat": -32.8, "lng": 151.28333, "pop": 1309}, {"name": "Point Vernon", "lat": -25.25727, "lng": 152.81725, "pop": 5693}, {"name": "Point Lonsdale", "lat": -38.28173, "lng": 144.61055, "pop": 2490}, {"name": "Point Cook", "lat": -37.91482, "lng": 144.75088, "pop": 66781}, {"name": "Point Clare", "lat": -33.44378, "lng": 151.32732, "pop": 3676}, {"name": "Plenty", "lat": -37.66667, "lng": 145.11667, "pop": 2315}, {"name": "Plainland", "lat": -27.56667, "lng": 152.41667, "pop": 1566}, {"name": "Pitt Town", "lat": -33.58718, "lng": 150.85857, "pop": 2982}, {"name": "Pittsworth", "lat": -27.71638, "lng": 151.63399, "pop": 3197}, {"name": "Pinnaroo", "lat": -35.26155, "lng": 140.91199, "pop": 720}, {"name": "Pine Mountain", "lat": -27.55, "lng": 152.7, "pop": 1630}, {"name": "Pimpama", "lat": -27.81667, "lng": 153.3, "pop": 9396}, {"name": "Picton", "lat": -34.16995, "lng": 150.61168, "pop": 4737}, {"name": "Pialba", "lat": -25.287, "lng": 152.84369, "pop": 3984}, {"name": "Phillip", "lat": -35.35035, "lng": 149.09151, "pop": 3079}, {"name": "Phillip", "lat": -31.13333, "lng": 150.85, "pop": 1909}, {"name": "Petrie", "lat": -27.26667, "lng": 152.98333, "pop": 8494}, {"name": "Perthville", "lat": -33.48741, "lng": 149.54642, "pop": 603}, {"name": "Perth", "lat": -41.57231, "lng": 147.17096, "pop": 2907}, {"name": "Penshurst", "lat": -37.87528, "lng": 142.29071, "pop": 624}, {"name": "Penshurst", "lat": -33.96667, "lng": 151.08333, "pop": 12673}, {"name": "Penrith", "lat": -33.75, "lng": 150.7, "pop": 13343}, {"name": "Penola", "lat": -37.3752, "lng": 140.83678, "pop": 1376}, {"name": "Pennant Hills", "lat": -33.73783, "lng": 151.07216, "pop": 7199}, {"name": "Penguin", "lat": -41.12258, "lng": 146.07318, "pop": 3728}, {"name": "Pendle Hill", "lat": -33.80402, "lng": 150.95543, "pop": 7150}, {"name": "Peeramon", "lat": -17.31033, "lng": 145.61133, "pop": 625}, {"name": "Pearl Beach", "lat": -33.54436, "lng": 151.30336, "pop": 522}, {"name": "Pearcedale", "lat": -38.203, "lng": 145.23488, "pop": 3867}, {"name": "Peak Hill", "lat": -32.72387, "lng": 148.19052, "pop": 768}, {"name": "Peak Crossing", "lat": -27.78373, "lng": 152.72605, "pop": 946}, {"name": "Peachester", "lat": -26.84551, "lng": 152.884, "pop": 1350}, {"name": "Paynesville", "lat": -37.91886, "lng": 147.71944, "pop": 3285}, {"name": "Paxton", "lat": -32.90609, "lng": 151.28493, "pop": 924}, {"name": "Paterson", "lat": -32.60613, "lng": 151.61589, "pop": 875}, {"name": "Pascoe Vale", "lat": -37.73333, "lng": 144.93333, "pop": 18171}, {"name": "Parkville", "lat": -37.78333, "lng": 144.95, "pop": 7074}, {"name": "Park Ridge", "lat": -27.71667, "lng": 153.03333, "pop": 2487}, {"name": "Parkhurst", "lat": -23.3, "lng": 150.51667, "pop": 2572}, {"name": "Parkes", "lat": -33.1372, "lng": 148.1759, "pop": 9832}, {"name": "Parkdale", "lat": -37.99187, "lng": 145.08128, "pop": 12308}, {"name": "Panton Hill", "lat": -37.64082, "lng": 145.23991, "pop": 1028}, {"name": "Pambula", "lat": -36.9301, "lng": 149.8745, "pop": 974}, {"name": "Palmwoods", "lat": -26.68584, "lng": 152.96135, "pop": 5575}, {"name": "Palmers Island", "lat": -29.4198, "lng": 153.28841, "pop": 564}, {"name": "Palm Beach", "lat": -33.59664, "lng": 151.32384, "pop": 1450}, {"name": "Palm Beach", "lat": -28.11694, "lng": 153.46584, "pop": 15205}, {"name": "Pallarenda", "lat": -19.20104, "lng": 146.77341, "pop": 787}, {"name": "Pakenham Upper", "lat": -38.01667, "lng": 145.51667, "pop": 1139}, {"name": "Pakenham", "lat": -38.07018, "lng": 145.47411, "pop": 54118}, {"name": "Oxley", "lat": -36.45, "lng": 146.36667, "pop": 606}, {"name": "Oxley", "lat": -27.55, "lng": 152.98333, "pop": 8344}, {"name": "Ouyen", "lat": -35.07087, "lng": 142.32034, "pop": 1185}, {"name": "Ormond", "lat": -37.9, "lng": 145.03333, "pop": 8328}, {"name": "Ormiston", "lat": -27.51667, "lng": 153.25, "pop": 5669}, {"name": "Ormeau", "lat": -27.76791, "lng": 153.2428, "pop": 14180}, {"name": "Orford", "lat": -42.56017, "lng": 147.8718, "pop": 616}, {"name": "Orbost", "lat": -37.69644, "lng": 148.457, "pop": 2164}, {"name": "Orange", "lat": -33.28397, "lng": 149.10018, "pop": 41920}, {"name": "Oonoonba", "lat": -19.29684, "lng": 146.82091, "pop": 1638}, {"name": "One Mile", "lat": -27.62902, "lng": 152.73768, "pop": 2054}, {"name": "Olinda", "lat": -37.85, "lng": 145.36667, "pop": 1773}, {"name": "Lancefield", "lat": -37.27733, "lng": 144.73596, "pop": 2439}, {"name": "Old Beach", "lat": -42.77758, "lng": 147.26659, "pop": 3667}, {"name": "Old Bar", "lat": -31.9694, "lng": 152.58807, "pop": 4366}, {"name": "Officer", "lat": -38.05916, "lng": 145.40947, "pop": 18503}, {"name": "Barwon Heads", "lat": -38.27448, "lng": 144.48853, "pop": 3685}, {"name": "Oberon", "lat": -33.70398, "lng": 149.85915, "pop": 3234}, {"name": "Oatley", "lat": -33.98004, "lng": 151.07201, "pop": 10301}, {"name": "Oatlands", "lat": -42.30302, "lng": 147.36723, "pop": 669}, {"name": "Oakleigh East", "lat": -37.9, "lng": 145.11667, "pop": 6344}, {"name": "Oakleigh", "lat": -37.89809, "lng": 145.08837, "pop": 8442}, {"name": "Oakhurst", "lat": -25.51253, "lng": 152.63583, "pop": 1397}, {"name": "Oakey", "lat": -27.43305, "lng": 151.72063, "pop": 4724}, {"name": "Oakdale", "lat": -34.0793, "lng": 150.5132, "pop": 1813}, {"name": "Nyora", "lat": -38.33364, "lng": 145.67248, "pop": 1644}, {"name": "Nyngan", "lat": -31.56375, "lng": 147.19373, "pop": 2203}, {"name": "Nyah West", "lat": -35.18537, "lng": 143.35082, "pop": 670}, {"name": "Nyah", "lat": -35.17547, "lng": 143.37736, "pop": 546}, {"name": "Nundle", "lat": -31.46497, "lng": 151.12639, "pop": 517}, {"name": "Nunawading", "lat": -37.82043, "lng": 145.17308, "pop": 12413}, {"name": "Numurkah", "lat": -36.08846, "lng": 145.44215, "pop": 4396}, {"name": "Nowra", "lat": -34.88422, "lng": 150.60036, "pop": 9598}, {"name": "Notting Hill", "lat": -37.905, "lng": 145.1427, "pop": 3052}, {"name": "North Wonthaggi", "lat": -38.57769, "lng": 145.59302, "pop": 2746}, {"name": "North Turramurra", "lat": -33.71313, "lng": 151.14638, "pop": 4228}, {"name": "North Sydney", "lat": -33.839, "lng": 151.2072, "pop": 8055}, {"name": "North Melbourne", "lat": -37.79798, "lng": 144.94512, "pop": 15395}, {"name": "Northmead", "lat": -33.78378, "lng": 150.99858, "pop": 11042}, {"name": "North Mackay", "lat": -21.12009, "lng": 149.17941, "pop": 5742}, {"name": "North Lismore", "lat": -28.78876, "lng": 153.28035, "pop": 783}, {"name": "North Haven", "lat": -31.6368, "lng": 152.81357, "pop": 1740}, {"name": "Fitzroy North", "lat": -37.78862, "lng": 144.97885, "pop": 12781}, {"name": "Northcote", "lat": -37.76667, "lng": 145.0, "pop": 25276}, {"name": "North Bourke", "lat": -30.0523, "lng": 145.94889, "pop": 544}, {"name": "North Arm", "lat": -26.52479, "lng": 152.95522, "pop": 652}, {"name": "Normanton", "lat": -17.67183, "lng": 141.07721, "pop": 1555}, {"name": "Normanhurst", "lat": -33.7237, "lng": 151.09576, "pop": 5211}, {"name": "Nords Wharf", "lat": -33.13133, "lng": 151.60725, "pop": 860}, {"name": "Noosaville", "lat": -26.4, "lng": 153.06667, "pop": 9811}, {"name": "Noosa Heads", "lat": -26.39433, "lng": 153.0901, "pop": 7041}, {"name": "Nome", "lat": -19.36245, "lng": 146.94672, "pop": 1048}, {"name": "Noble Park", "lat": -37.96667, "lng": 145.16667, "pop": 30921}, {"name": "Nobby", "lat": -27.86161, "lng": 151.90114, "pop": 548}, {"name": "Nimbin", "lat": -28.59545, "lng": 153.22336, "pop": 1549}, {"name": "Nikenbah", "lat": -25.31936, "lng": 152.8041, "pop": 644}, {"name": "Nicholson", "lat": -37.81667, "lng": 147.73333, "pop": 1045}, {"name": "Nhill", "lat": -36.33333, "lng": 141.65006, "pop": 2156}, {"name": "Newtown", "lat": -33.89835, "lng": 151.17754, "pop": 14820}, {"name": "Newstead", "lat": -41.44108, "lng": 147.16183, "pop": 4719}, {"name": "Newstead", "lat": -37.10598, "lng": 144.06467, "pop": 820}, {"name": "Newstead", "lat": -27.45314, "lng": 153.04183, "pop": 2163}, {"name": "Newport", "lat": -37.84427, "lng": 144.88483, "pop": 13658}, {"name": "Newport", "lat": -33.65639, "lng": 151.31401, "pop": 9048}, {"name": "New Norfolk", "lat": -42.78261, "lng": 147.0587, "pop": 5366}, {"name": "Newnham", "lat": -41.38969, "lng": 147.11397, "pop": 6481}, {"name": "Newmarket", "lat": -27.43534, "lng": 153.00781, "pop": 4817}, {"name": "Newington", "lat": -37.55846, "lng": 143.82485, "pop": 1876}, {"name": "Newcastle", "lat": -32.92953, "lng": 151.7801, "pop": 508437}, {"name": "Nerrina", "lat": -37.55, "lng": 143.88333, "pop": 931}, {"name": "Nerang", "lat": -27.98941, "lng": 153.33633, "pop": 16739}, {"name": "Nemingha", "lat": -31.12368, "lng": 150.9892, "pop": 675}, {"name": "Nelson Bay", "lat": -32.72043, "lng": 152.14398, "pop": 6096}, {"name": "Neerim South", "lat": -38.01683, "lng": 145.95447, "pop": 1599}, {"name": "Nebo", "lat": -21.68333, "lng": 148.68333, "pop": 1085}, {"name": "Narromine", "lat": -32.23121, "lng": 148.24052, "pop": 4602}, {"name": "Narre Warren North", "lat": -37.98333, "lng": 145.31667, "pop": 7583}, {"name": "Narre Warren", "lat": -38.03333, "lng": 145.3, "pop": 27689}, {"name": "Narrandera", "lat": -34.74752, "lng": 146.55096, "pop": 4391}, {"name": "Narrabri", "lat": -30.32488, "lng": 149.78266, "pop": 7866}, {"name": "Narrabeen", "lat": -33.71277, "lng": 151.29736, "pop": 8049}, {"name": "Narooma", "lat": -36.21783, "lng": 150.13247, "pop": 2633}, {"name": "Nar Nar Goon North", "lat": -38.01667, "lng": 145.56667, "pop": 736}, {"name": "Nar Nar Goon", "lat": -38.08246, "lng": 145.57008, "pop": 995}, {"name": "Narellan", "lat": -34.04338, "lng": 150.73236, "pop": 3583}, {"name": "Narara", "lat": -33.39593, "lng": 151.33527, "pop": 7841}, {"name": "Narangba", "lat": -27.20338, "lng": 152.95923, "pop": 20910}, {"name": "Naracoorte", "lat": -36.95785, "lng": 140.7383, "pop": 5876}, {"name": "Napoleons", "lat": -37.66667, "lng": 143.83333, "pop": 540}, {"name": "Nanango", "lat": -26.67157, "lng": 152.00211, "pop": 3573}, {"name": "Nana Glen", "lat": -30.13333, "lng": 153.01667, "pop": 1036}, {"name": "Nambucca Heads", "lat": -30.64318, "lng": 153.00884, "pop": 6529}, {"name": "Nambucca", "lat": -30.63333, "lng": 152.98333, "pop": 6137}, {"name": "Nambour", "lat": -26.62613, "lng": 152.95941, "pop": 11482}, {"name": "Nagambie", "lat": -36.78515, "lng": 145.15375, "pop": 1881}, {"name": "Nabiac", "lat": -32.09837, "lng": 152.37627, "pop": 1215}, {"name": "Myrtleford", "lat": -36.56104, "lng": 146.72371, "pop": 3285}, {"name": "Muswellbrook", "lat": -32.26118, "lng": 150.89009, "pop": 16000}, {"name": "Murwillumbah", "lat": -28.32732, "lng": 153.39339, "pop": 7097}, {"name": "Murtoa", "lat": -36.62009, "lng": 142.46677, "pop": 851}, {"name": "Murrurundi", "lat": -31.76422, "lng": 150.83575, "pop": 1031}, {"name": "Murrumbeena", "lat": -37.9, "lng": 145.06667, "pop": 9767}, {"name": "Murrumbateman", "lat": -34.97199, "lng": 149.02985, "pop": 3154}, {"name": "Murphys Creek", "lat": -27.46371, "lng": 152.05494, "pop": 617}, {"name": "Murgon", "lat": -26.2417, "lng": 151.94047, "pop": 2386}, {"name": "Murchison", "lat": -36.61888, "lng": 145.21719, "pop": 891}, {"name": "Mungindi", "lat": -28.97668, "lng": 148.98808, "pop": 589}, {"name": "Mundubbera", "lat": -25.59266, "lng": 151.30225, "pop": 1345}, {"name": "Mulwala", "lat": -35.98536, "lng": 146.00534, "pop": 2302}, {"name": "Mullumbimby", "lat": -28.55236, "lng": 153.49956, "pop": 3629}, {"name": "Mullion Creek", "lat": -33.1252, "lng": 149.1276, "pop": 534}, {"name": "Mulgrave", "lat": -37.92845, "lng": 145.17708, "pop": 19889}, {"name": "Mulgoa", "lat": -33.838, "lng": 150.64963, "pop": 1848}, {"name": "Mulbring", "lat": -32.90476, "lng": 151.48508, "pop": 586}, {"name": "Mudgeeraba", "lat": -28.08333, "lng": 153.36667, "pop": 13466}, {"name": "Mudgee", "lat": -32.59426, "lng": 149.5871, "pop": 11457}, {"name": "Mourilyan", "lat": -17.58258, "lng": 146.04349, "pop": 551}, {"name": "Moura", "lat": -24.5722, "lng": 149.96729, "pop": 2226}, {"name": "Mount Waverley", "lat": -37.87709, "lng": 145.12939, "pop": 35340}, {"name": "Mount Victoria", "lat": -33.59104, "lng": 150.25539, "pop": 989}, {"name": "Mount Samson", "lat": -27.3, "lng": 152.85, "pop": 592}, {"name": "Mount Pleasant", "lat": -33.46281, "lng": 151.3571, "pop": 1370}, {"name": "Mount Pleasant", "lat": -37.58333, "lng": 143.86667, "pop": 2122}, {"name": "Mount Perry", "lat": -25.17915, "lng": 151.64712, "pop": 553}, {"name": "Mount Morgan", "lat": -23.64532, "lng": 150.38902, "pop": 1926}, {"name": "Mount Martha", "lat": -38.26667, "lng": 145.01667, "pop": 19846}, {"name": "Mount Macedon", "lat": -37.40048, "lng": 144.58412, "pop": 1305}, {"name": "Mount Julian", "lat": -20.38333, "lng": 148.61667, "pop": 500}, {"name": "Mount Hunter", "lat": -34.07167, "lng": 150.63782, "pop": 697}, {"name": "Mount Gravatt", "lat": -27.53333, "lng": 153.08333, "pop": 3295}, {"name": "Mount Gambier", "lat": -37.8318, "lng": 140.77919, "pop": 25591}, {"name": "Mount Evelyn", "lat": -37.78333, "lng": 145.38333, "pop": 9467}, {"name": "Mount Eliza", "lat": -38.18333, "lng": 145.08333, "pop": 18734}, {"name": "Mount Egerton", "lat": -37.63333, "lng": 144.1, "pop": 572}, {"name": "Mount Duneed", "lat": -38.24089, "lng": 144.33748, "pop": 1555}, {"name": "Mount Druitt", "lat": -33.76667, "lng": 150.81667, "pop": 16682}, {"name": "Mount Dandenong", "lat": -37.83333, "lng": 145.36667, "pop": 1214}, {"name": "Mount Crosby", "lat": -27.53948, "lng": 152.80583, "pop": 1814}, {"name": "Mount Cottrell", "lat": -37.81667, "lng": 144.58333, "pop": 575}, {"name": "Mount Cotton", "lat": -27.63333, "lng": 153.23333, "pop": 6729}, {"name": "Mount Colah", "lat": -33.68333, "lng": 151.11667, "pop": 6974}, {"name": "Mount Clear", "lat": -37.6, "lng": 143.88333, "pop": 3312}, {"name": "Mount Beauty", "lat": -36.73628, "lng": 147.17531, "pop": 808}, {"name": "Moss Vale", "lat": -34.55374, "lng": 150.37115, "pop": 8430}, {"name": "Mossman", "lat": -16.46292, "lng": 145.37144, "pop": 2084}, {"name": "Mosman", "lat": -33.83902, "lng": 151.23956, "pop": 27844}, {"name": "Morwell", "lat": -38.23476, "lng": 146.39499, "pop": 13620}, {"name": "Moruya Heads", "lat": -35.91774, "lng": 150.15375, "pop": 936}, {"name": "Moruya", "lat": -35.9125, "lng": 150.08144, "pop": 3943}, {"name": "Mortlake", "lat": -38.08102, "lng": 142.80827, "pop": 1334}, {"name": "Mortlake", "lat": -33.84217, "lng": 151.10719, "pop": 1021}, {"name": "Mortdale", "lat": -33.96897, "lng": 151.07231, "pop": 10315}, {"name": "Mornington", "lat": -38.21792, "lng": 145.03876, "pop": 25759}, {"name": "Morisset", "lat": -33.10801, "lng": 151.48706, "pop": 3176}, {"name": "Moriac", "lat": -38.24092, "lng": 144.17477, "pop": 776}, {"name": "Moree", "lat": -29.46278, "lng": 149.84157, "pop": 9779}, {"name": "Mordialloc", "lat": -38.0, "lng": 145.08333, "pop": 8027}, {"name": "Morayfield", "lat": -27.10876, "lng": 152.94907, "pop": 21221}, {"name": "South Morang", "lat": -37.65, "lng": 145.1, "pop": 24989}, {"name": "Mooroopna", "lat": -36.4, "lng": 145.35, "pop": 8312}, {"name": "Mooroolbark", "lat": -37.78247, "lng": 145.31682, "pop": 23059}, {"name": "Moorooduc", "lat": -38.21667, "lng": 145.11667, "pop": 1063}, {"name": "Moore", "lat": -30.99255, "lng": 150.9102, "pop": 862}, {"name": "Moorabbin", "lat": -37.94146, "lng": 145.05779, "pop": 5824}, {"name": "Moonee Ponds", "lat": -37.76667, "lng": 144.91667, "pop": 16224}, {"name": "Moonee Beach", "lat": -30.20575, "lng": 153.15293, "pop": 1985}, {"name": "Moonbi", "lat": -31.01775, "lng": 151.07062, "pop": 1099}, {"name": "Moonbah", "lat": -36.4818, "lng": 148.5512, "pop": 603}, {"name": "Moonah", "lat": -42.84617, "lng": 147.30228, "pop": 5311}, {"name": "Mooloolaba", "lat": -26.68164, "lng": 153.11925, "pop": 9502}, {"name": "Moolap", "lat": -38.18333, "lng": 144.43333, "pop": 1318}, {"name": "Montville", "lat": -26.68333, "lng": 152.88333, "pop": 1071}, {"name": "Montrose", "lat": -37.81667, "lng": 145.35, "pop": 6595}, {"name": "Monto", "lat": -24.86477, "lng": 151.12199, "pop": 1225}, {"name": "Montmorency", "lat": -37.71667, "lng": 145.11667, "pop": 9250}, {"name": "Montefiores", "lat": -32.53333, "lng": 148.93333, "pop": 571}, {"name": "Mont Albert", "lat": -37.81788, "lng": 145.10799, "pop": 4948}, {"name": "Monbulk", "lat": -37.87427, "lng": 145.42592, "pop": 3651}, {"name": "Mona Vale", "lat": -33.67757, "lng": 151.30307, "pop": 10877}, {"name": "Monash", "lat": -34.2384, "lng": 140.56131, "pop": 1097}, {"name": "Molong", "lat": -33.09233, "lng": 148.87002, "pop": 2560}, {"name": "Mole Creek", "lat": -41.57816, "lng": 146.40422, "pop": 509}, {"name": "Moggill", "lat": -27.58333, "lng": 152.86667, "pop": 4582}, {"name": "Moe", "lat": -38.17828, "lng": 146.26099, "pop": 9375}, {"name": "Moama", "lat": -36.10413, "lng": 144.7608, "pop": 6164}, {"name": "Mittagong", "lat": -34.45002, "lng": 150.44572, "pop": 5725}, {"name": "Mitchelton", "lat": -27.41667, "lng": 152.96667, "pop": 8387}, {"name": "Mitchell", "lat": -29.68333, "lng": 152.11667, "pop": 628}, {"name": "Mitchell", "lat": -26.4849, "lng": 147.9742, "pop": 1178}, {"name": "Mitcham", "lat": -37.81667, "lng": 145.2, "pop": 16795}, {"name": "Miriam Vale", "lat": -24.33215, "lng": 151.56291, "pop": 506}, {"name": "Mirboo North", "lat": -38.40101, "lng": 146.16135, "pop": 2120}, {"name": "Mirani", "lat": -21.15729, "lng": 148.86217, "pop": 1504}, {"name": "Miranda", "lat": -34.03857, "lng": 151.10005, "pop": 15111}, {"name": "Minto", "lat": -34.03333, "lng": 150.85, "pop": 12461}, {"name": "Minnamurra", "lat": -34.62261, "lng": 150.85033, "pop": 738}, {"name": "Minmi", "lat": -32.87832, "lng": 151.61726, "pop": 737}, {"name": "Miners Rest", "lat": -37.4808, "lng": 143.80107, "pop": 3042}, {"name": "Minden", "lat": -27.55965, "lng": 152.54493, "pop": 1212}, {"name": "Milton", "lat": -35.31644, "lng": 150.4361, "pop": 1616}, {"name": "Millthorpe", "lat": -33.44601, "lng": 149.18539, "pop": 1208}, {"name": "Mill Park", "lat": -37.66667, "lng": 145.06667, "pop": 28712}, {"name": "Millmerran", "lat": -27.87913, "lng": 151.27058, "pop": 1548}, {"name": "Millicent", "lat": -37.59389, "lng": 140.34947, "pop": 4924}, {"name": "Millgrove", "lat": -37.75527, "lng": 145.65347, "pop": 1666}, {"name": "Millfield", "lat": -32.88856, "lng": 151.26131, "pop": 982}, {"name": "Millaa Millaa", "lat": -17.5139, "lng": 145.61291, "pop": 524}, {"name": "Miles", "lat": -26.65836, "lng": 150.18822, "pop": 2030}, {"name": "Mildura", "lat": -34.18551, "lng": 142.16251, "pop": 34565}, {"name": "Milawa", "lat": -36.43333, "lng": 146.43333, "pop": 592}, {"name": "Michelago", "lat": -35.71667, "lng": 149.16667, "pop": 536}, {"name": "Metung", "lat": -37.89154, "lng": 147.853, "pop": 1382}, {"name": "Merrylands", "lat": -33.83333, "lng": 150.98333, "pop": 29508}, {"name": "Merriwa", "lat": -32.13922, "lng": 150.35562, "pop": 1759}, {"name": "Merimbula", "lat": -36.88901, "lng": 149.90961, "pop": 3973}, {"name": "Merrijig", "lat": -37.1, "lng": 146.25, "pop": 735}, {"name": "Merrigum", "lat": -36.37236, "lng": 145.13222, "pop": 653}, {"name": "Mernda", "lat": -37.60075, "lng": 145.09555, "pop": 23369}, {"name": "Meredith", "lat": -37.84539, "lng": 144.07738, "pop": 761}, {"name": "Merbein", "lat": -34.16802, "lng": 142.06599, "pop": 4976}, {"name": "Menzies Creek", "lat": -37.91667, "lng": 145.4, "pop": 966}, {"name": "Mentone", "lat": -37.98333, "lng": 145.06667, "pop": 13197}, {"name": "Menindee", "lat": -32.39286, "lng": 142.41823, "pop": 605}, {"name": "Mendooran", "lat": -31.82288, "lng": 149.1222, "pop": 549}, {"name": "Menangle", "lat": -34.12675, "lng": 150.73868, "pop": 1144}, {"name": "Menai", "lat": -34.01667, "lng": 151.01667, "pop": 10199}, {"name": "Melton South", "lat": -37.70773, "lng": 144.57493, "pop": 11362}, {"name": "Melton", "lat": -37.68339, "lng": 144.58543, "pop": 7999}, {"name": "Melbourne", "lat": -37.814, "lng": 144.96332, "pop": 5350705}, {"name": "Meeniyan", "lat": -38.57689, "lng": 146.01933, "pop": 748}, {"name": "Medowie", "lat": -32.7415, "lng": 151.8676, "pop": 9301}, {"name": "Medlow Bath", "lat": -33.67464, "lng": 150.27881, "pop": 679}, {"name": "McLeans Ridges", "lat": -28.8, "lng": 153.38333, "pop": 511}, {"name": "McKinnon", "lat": -37.911, "lng": 145.038, "pop": 6878}, {"name": "McKinlay", "lat": -21.26667, "lng": 141.3, "pop": 631}, {"name": "Maudsland", "lat": -27.95, "lng": 153.26667, "pop": 5468}, {"name": "Matraville", "lat": -33.96344, "lng": 151.23195, "pop": 9768}, {"name": "Mathoura", "lat": -35.8152, "lng": 144.9012, "pop": 933}, {"name": "Matcham", "lat": -33.41667, "lng": 151.41667, "pop": 947}, {"name": "Mascot", "lat": -33.92598, "lng": 151.19347, "pop": 15985}, {"name": "Maryborough", "lat": -37.04562, "lng": 143.73923, "pop": 7830}, {"name": "Maryborough", "lat": -25.54073, "lng": 152.70493, "pop": 27489}, {"name": "Marulan", "lat": -34.70836, "lng": 150.00966, "pop": 1162}, {"name": "Marrickville", "lat": -33.90741, "lng": 151.15546, "pop": 26140}, {"name": "Marrangaroo", "lat": -33.43333, "lng": 150.11667, "pop": 915}, {"name": "Maroubra", "lat": -33.95, "lng": 151.23333, "pop": 30224}, {"name": "Maroota", "lat": -33.46179, "lng": 150.98242, "pop": 621}, {"name": "Marong", "lat": -36.73333, "lng": 144.13333, "pop": 1394}, {"name": "Marlo", "lat": -37.79622, "lng": 148.53191, "pop": 520}, {"name": "Maribyrnong", "lat": -37.77241, "lng": 144.88435, "pop": 12573}, {"name": "Marian", "lat": -21.14386, "lng": 148.94209, "pop": 3702}, {"name": "Margate", "lat": -43.02814, "lng": 147.26256, "pop": 3849}, {"name": "Margate", "lat": -27.24761, "lng": 153.09809, "pop": 7342}, {"name": "Mareeba", "lat": -16.99096, "lng": 145.42306, "pop": 8585}, {"name": "Marburg", "lat": -27.56609, "lng": 152.59705, "pop": 885}, {"name": "Mapleton", "lat": -26.62431, "lng": 152.86784, "pop": 1568}, {"name": "Mansfield", "lat": -37.052, "lng": 146.08846, "pop": 4844}, {"name": "Manly", "lat": -33.79798, "lng": 151.28826, "pop": 16170}, {"name": "Manilla", "lat": -30.74748, "lng": 150.71974, "pop": 2516}, {"name": "Manildra", "lat": -33.18248, "lng": 148.68909, "pop": 749}, {"name": "Mangrove Mountain", "lat": -33.3, "lng": 151.2, "pop": 702}, {"name": "Mandurang", "lat": -36.81667, "lng": 144.3, "pop": 631}, {"name": "Malvern", "lat": -37.86259, "lng": 145.02811, "pop": 9929}, {"name": "Malmsbury", "lat": -37.18856, "lng": 144.38475, "pop": 864}, {"name": "Mallacoota", "lat": -37.55896, "lng": 149.75407, "pop": 1062}, {"name": "Maleny", "lat": -26.76001, "lng": 152.84926, "pop": 3696}, {"name": "Maldon", "lat": -36.9957, "lng": 144.06834, "pop": 1665}, {"name": "Malanda", "lat": -17.35228, "lng": 145.59528, "pop": 2004}, {"name": "Malabar", "lat": -33.96216, "lng": 151.24796, "pop": 5403}, {"name": "Maitland", "lat": -32.73308, "lng": 151.5574, "pop": 89597}, {"name": "Magra", "lat": -42.75, "lng": 147.06667, "pop": 694}, {"name": "Maffra", "lat": -37.97132, "lng": 146.98366, "pop": 5050}, {"name": "Maddingley", "lat": -37.68518, "lng": 144.43245, "pop": 3426}, {"name": "Macleod", "lat": -37.723, "lng": 145.073, "pop": 9892}, {"name": "Maclean", "lat": -29.4581, "lng": 153.19753, "pop": 2701}, {"name": "Macksville", "lat": -30.7078, "lng": 152.92029, "pop": 2622}, {"name": "Mackay", "lat": -21.15345, "lng": 149.16554, "pop": 121691}, {"name": "Macedon", "lat": -37.41963, "lng": 144.56242, "pop": 1972}, {"name": "Macclesfield", "lat": -37.88333, "lng": 145.48333, "pop": 797}, {"name": "Macarthur", "lat": -38.03387, "lng": 142.00183, "pop": 519}, {"name": "Lysterfield", "lat": -37.93333, "lng": 145.3, "pop": 6569}, {"name": "Luddenham", "lat": -33.8785, "lng": 150.68863, "pop": 1776}, {"name": "Lucknow", "lat": -37.81667, "lng": 147.65, "pop": 1227}, {"name": "Lucindale", "lat": -36.97271, "lng": 140.37013, "pop": 524}, {"name": "Lucinda", "lat": -18.52785, "lng": 146.33125, "pop": 649}, {"name": "Loxton", "lat": -34.4502, "lng": 140.56908, "pop": 4513}, {"name": "Lowood", "lat": -27.46555, "lng": 152.57625, "pop": 4106}, {"name": "Low Head", "lat": -41.08, "lng": 146.80751, "pop": 536}, {"name": "Lower Portland", "lat": -33.45, "lng": 150.88333, "pop": 574}, {"name": "Lower Plenty", "lat": -37.73333, "lng": 145.11667, "pop": 3832}, {"name": "Lovely Banks", "lat": -38.06667, "lng": 144.33333, "pop": 2271}, {"name": "Loveday", "lat": -34.28333, "lng": 140.43333, "pop": 615}, {"name": "Lorne", "lat": -38.54043, "lng": 143.97636, "pop": 1196}, {"name": "Lorn", "lat": -32.72701, "lng": 151.57245, "pop": 1305}, {"name": "Loomberah", "lat": -31.28272, "lng": 151.01875, "pop": 503}, {"name": "Longwarry", "lat": -38.11279, "lng": 145.76849, "pop": 2436}, {"name": "Longreach", "lat": -23.44212, "lng": 144.24921, "pop": 3690}, {"name": "Long Jetty", "lat": -33.35917, "lng": 151.48834, "pop": 6399}, {"name": "Longford", "lat": -41.60512, "lng": 147.11887, "pop": 3769}, {"name": "Longford", "lat": -38.16237, "lng": 147.08591, "pop": 1444}, {"name": "Logan Village", "lat": -27.76832, "lng": 153.10762, "pop": 4322}, {"name": "Loganlea", "lat": -27.67535, "lng": 153.13472, "pop": 7296}, {"name": "Loganholme", "lat": -27.68444, "lng": 153.1864, "pop": 6222}, {"name": "Lockwood", "lat": -36.81113, "lng": 144.15761, "pop": 752}, {"name": "Lockington", "lat": -36.27124, "lng": 144.53729, "pop": 801}, {"name": "Lockhart", "lat": -35.22333, "lng": 146.71816, "pop": 1030}, {"name": "Lochinvar", "lat": -32.6987, "lng": 151.45522, "pop": 771}, {"name": "Loch", "lat": -38.3691, "lng": 145.70811, "pop": 619}, {"name": "Liverpool", "lat": -33.91938, "lng": 150.92588, "pop": 27545}, {"name": "Little River", "lat": -37.96667, "lng": 144.5, "pop": 1353}, {"name": "Lithgow", "lat": -33.4845, "lng": 150.14903, "pop": 5125}, {"name": "Lismore", "lat": -28.81354, "lng": 153.2773, "pop": 3924}, {"name": "Lisarow", "lat": -33.38333, "lng": 151.36667, "pop": 5036}, {"name": "Linton", "lat": -37.68634, "lng": 143.5629, "pop": 574}, {"name": "Lindisfarne", "lat": -42.84837, "lng": 147.36192, "pop": 5992}, {"name": "Lindfield", "lat": -33.78333, "lng": 151.16667, "pop": 9616}, {"name": "Lilydale", "lat": -41.25027, "lng": 147.21758, "pop": 568}, {"name": "Lilydale", "lat": -37.75, "lng": 145.35, "pop": 17348}, {"name": "Lightning Ridge", "lat": -29.42743, "lng": 147.97865, "pop": 2636}, {"name": "Lidcombe", "lat": -33.86436, "lng": 151.0397, "pop": 19791}, {"name": "Lewisham", "lat": -42.83333, "lng": 147.61667, "pop": 667}, {"name": "Leura", "lat": -33.71667, "lng": 150.33333, "pop": 4802}, {"name": "Leumeah", "lat": -34.05, "lng": 150.83333, "pop": 9767}, {"name": "Lethbridge", "lat": -37.96571, "lng": 144.13574, "pop": 994}, {"name": "Leopold", "lat": -38.19001, "lng": 144.46825, "pop": 12389}, {"name": "Leongatha", "lat": -38.47607, "lng": 145.94685, "pop": 5408}, {"name": "Leneva", "lat": -36.21667, "lng": 146.9, "pop": 841}, {"name": "Leitchville", "lat": -35.90393, "lng": 144.30219, "pop": 543}, {"name": "Leichhardt", "lat": -33.88341, "lng": 151.15625, "pop": 14373}, {"name": "Legana", "lat": -41.36572, "lng": 147.04584, "pop": 3926}, {"name": "Leeton", "lat": -34.55105, "lng": 146.40483, "pop": 8634}, {"name": "Lawson", "lat": -33.72064, "lng": 150.42975, "pop": 2651}, {"name": "Lawrence", "lat": -29.4921, "lng": 153.09689, "pop": 1014}, {"name": "Lawnton", "lat": -27.28333, "lng": 152.98333, "pop": 5560}, {"name": "Lavington", "lat": -36.03976, "lng": 146.93958, "pop": 12334}, {"name": "Camden Haven", "lat": -31.64484, "lng": 152.79462, "pop": 2089}, {"name": "Laura", "lat": -15.52167, "lng": 144.19865, "pop": 520}, {"name": "Launceston", "lat": -41.43876, "lng": 147.13467, "pop": 90953}, {"name": "Lauderdale", "lat": -42.91364, "lng": 147.48747, "pop": 2592}, {"name": "Latrobe", "lat": -41.24641, "lng": 146.42458, "pop": 4058}, {"name": "Largs", "lat": -32.7, "lng": 151.6, "pop": 1894}, {"name": "Lara", "lat": -38.02388, "lng": 144.40617, "pop": 15919}, {"name": "Langwarrin", "lat": -38.16667, "lng": 145.16667, "pop": 22146}, {"name": "Lang Lang", "lat": -38.26605, "lng": 145.5621, "pop": 1543}, {"name": "Lane Cove", "lat": -33.8157, "lng": 151.16679, "pop": 12363}, {"name": "Landsborough", "lat": -26.80666, "lng": 152.96095, "pop": 3834}, {"name": "Lameroo", "lat": -35.32899, "lng": 140.51669, "pop": 819}, {"name": "Lalor", "lat": -37.66667, "lng": 145.01667, "pop": 23219}, {"name": "Lake Haven", "lat": -33.24303, "lng": 151.50434, "pop": 3513}, {"name": "Lakes Entrance", "lat": -37.86679, "lng": 148.00159, "pop": 4850}, {"name": "Lakes Creek", "lat": -23.36188, "lng": 150.5763, "pop": 546}, {"name": "Lakemba", "lat": -33.91972, "lng": 151.07592, "pop": 16921}, {"name": "Lake Illawarra", "lat": -34.54658, "lng": 150.85645, "pop": 3120}, {"name": "Lake Cargelligo", "lat": -33.29884, "lng": 146.37296, "pop": 1445}, {"name": "Lake Boga", "lat": -35.46299, "lng": 143.63258, "pop": 961}, {"name": "Lake Albert", "lat": -35.16667, "lng": 147.38333, "pop": 5908}, {"name": "Laidley", "lat": -27.63278, "lng": 152.39285, "pop": 3711}, {"name": "Lachlan", "lat": -42.83333, "lng": 147.05, "pop": 825}, {"name": "Kyogle", "lat": -28.62278, "lng": 152.99736, "pop": 2156}, {"name": "Kyneton", "lat": -37.24444, "lng": 144.45148, "pop": 6904}, {"name": "Kyabram", "lat": -36.31335, "lng": 145.05035, "pop": 7099}, {"name": "Kuttabul", "lat": -21.03333, "lng": 148.9, "pop": 722}, {"name": "Kurri Kurri", "lat": -32.81933, "lng": 151.47908, "pop": 6048}, {"name": "Kurrajong Heights", "lat": -33.52772, "lng": 150.62907, "pop": 1327}, {"name": "Kurnell", "lat": -34.01088, "lng": 151.20512, "pop": 2236}, {"name": "Kuranda", "lat": -16.81978, "lng": 145.63818, "pop": 3010}, {"name": "Kundabung", "lat": -31.20942, "lng": 152.83158, "pop": 609}, {"name": "Kowanyama", "lat": -15.47362, "lng": 141.74567, "pop": 964}, {"name": "Koumala", "lat": -21.61667, "lng": 149.25, "pop": 808}, {"name": "Kotara", "lat": -32.94282, "lng": 151.69585, "pop": 3846}, {"name": "Korumburra", "lat": -38.43194, "lng": 145.82355, "pop": 4304}, {"name": "Koroit", "lat": -38.2918, "lng": 142.36729, "pop": 2022}, {"name": "Kooyong", "lat": -37.95, "lng": 145.05, "pop": 803}, {"name": "Koo-Wee-Rup", "lat": -38.19941, "lng": 145.49081, "pop": 3079}, {"name": "Kootingal", "lat": -31.05857, "lng": 151.0535, "pop": 2099}, {"name": "Koondrook", "lat": -35.63183, "lng": 144.12476, "pop": 972}, {"name": "Koolewong", "lat": -33.46498, "lng": 151.31569, "pop": 868}, {"name": "Kogarah", "lat": -33.9681, "lng": 151.13564, "pop": 16416}, {"name": "Koah", "lat": -16.8857, "lng": 145.55168, "pop": 610}, {"name": "Kleinton", "lat": -27.43333, "lng": 151.95, "pop": 1552}, {"name": "Kirribilli", "lat": -33.84867, "lng": 151.2162, "pop": 3827}, {"name": "Kin Kin", "lat": -26.27085, "lng": 152.87735, "pop": 795}, {"name": "Kingston Beach", "lat": -42.98021, "lng": 147.31941, "pop": 1952}, {"name": "Kingston", "lat": -42.97638, "lng": 147.30351, "pop": 10154}, {"name": "Kingston", "lat": -34.23333, "lng": 140.35, "pop": 1441}, {"name": "Kingston", "lat": -27.66667, "lng": 153.11667, "pop": 10518}, {"name": "Kingsthorpe", "lat": -27.47558, "lng": 151.81409, "pop": 1824}, {"name": "Kingscliff", "lat": -28.25983, "lng": 153.57816, "pop": 7878}, {"name": "Kinglake West", "lat": -37.46667, "lng": 145.23333, "pop": 1122}, {"name": "Kinglake", "lat": -37.53291, "lng": 145.33964, "pop": 1485}, {"name": "Kingaroy", "lat": -26.53994, "lng": 151.8373, "pop": 10266}, {"name": "Kincumber South", "lat": -33.48658, "lng": 151.37703, "pop": 707}, {"name": "Kincumber", "lat": -33.48333, "lng": 151.41667, "pop": 707}, {"name": "Kilsyth", "lat": -37.8, "lng": 145.31667, "pop": 11699}, {"name": "Kilmore", "lat": -37.29577, "lng": 144.95252, "pop": 7865}, {"name": "Killingworth", "lat": -32.93411, "lng": 151.55597, "pop": 683}, {"name": "Killarney", "lat": -28.33268, "lng": 152.29424, "pop": 934}, {"name": "Kilkivan", "lat": -26.08689, "lng": 152.23404, "pop": 733}, {"name": "Kilcoy", "lat": -26.943, "lng": 152.56545, "pop": 1891}, {"name": "Kianga", "lat": -36.19452, "lng": 150.12676, "pop": 727}, {"name": "Kiama", "lat": -34.66828, "lng": 150.85219, "pop": 6836}, {"name": "Keysborough", "lat": -37.99116, "lng": 145.17385, "pop": 30018}, {"name": "Kew", "lat": -37.80639, "lng": 145.03086, "pop": 24499}, {"name": "Kew", "lat": -31.63602, "lng": 152.72662, "pop": 1043}, {"name": "Kettering", "lat": -43.12623, "lng": 147.24641, "pop": 769}, {"name": "Kerang", "lat": -35.73489, "lng": 143.92027, "pop": 3837}, {"name": "Kenthurst", "lat": -33.65527, "lng": 151.00503, "pop": 4982}, {"name": "Kensington", "lat": -33.92019, "lng": 151.22241, "pop": 15021}, {"name": "Kensington", "lat": -37.79188, "lng": 144.93114, "pop": 9719}, {"name": "Kennington", "lat": -36.77128, "lng": 144.30298, "pop": 5545}, {"name": "Kenilworth", "lat": -26.59662, "lng": 152.72807, "pop": 598}, {"name": "Kendall", "lat": -31.63295, "lng": 152.70393, "pop": 1109}, {"name": "Kempsey", "lat": -31.07898, "lng": 152.83093, "pop": 9522}, {"name": "Kelso", "lat": -33.41667, "lng": 149.6, "pop": 8798}, {"name": "Keith", "lat": -36.0991, "lng": 140.35315, "pop": 1319}, {"name": "Keiraville", "lat": -34.41667, "lng": 150.86667, "pop": 3613}, {"name": "Keilor", "lat": -37.71667, "lng": 144.83333, "pop": 5730}, {"name": "Kawungan", "lat": -25.29879, "lng": 152.846, "pop": 4713},